,ID,NOMBRE PROYECTO,DIRECCIÓN,COMUNA,LATITUD,LONGITUD,INMOBILIARIA,TIPO PROYECTO,FECHA DE ENTREGA,SUP. PROMEDIO,TOTAL UNIDADES PROYECTO,VIGENCIA,FECHA DE PROCESO,CLIMA
0,1,LAS PALMAS DE INDEPENDENCIA,"INDEPENDENCIA 4599, SANTIAGO, REGION METROPOLITANA, CHILE",CONCHALI,-33.3863675,-70.6785764999999,INMOBILIARIA INDEPENDENCIA,DEPARTAMENTO,42064,57.5,180,0,2022-12-16,por definir
1,2,PARQUE CAROLINA RABAT,"CAROLINA RABAT 900, SANTIAGO, REGION METROPOLITANA, CHILE",VITACURA,-33.3692815,-70.5778417,INMOBILIARIA CARMELL LTDA.,DEPARTAMENTO,42064,258.5,204,0,2022-12-16,por definir
2,3,VALLE LA DEHESA,"LA DEHESA 4995, SANTIAGO, REGION METROPOLITANA, CHILE",LO BARNECHEA,-33.3211558,-70.5175632999999,ENACO S.A.,CASA,42064,139.5,244,0,2022-12-16,por definir
3,4,CIUDAD DEL SOL,"VICUÑA MACKENNA PARADERO 35, SANTIAGO, REGION METROPOLITANA, CHILE",PUENTE ALTO,-33.5906953,-70.5797875,CONSORCIO INMOBILIARIO MBI LTDA.,CASA,42401,101.0,2386,0,2022-12-16,por definir
4,5,CONJUNTO PORTAL OESTE,"AEROPUERTO ESQ. FERNANDEZ ALBANO, SANTIAGO, REGION METROPOLITANA, CHILE",CERRILLOS,-33.5258729,-70.6489648,INMOBILIARIA GALIZZO S.A.,CASA,42064,98.5,500,0,2022-12-16,por definir
5,6,VALLE NORTE (FERNANDEZ WOOD),"CAMINO EL ALBA TRES S/N, SANTIAGO, REGION METROPOLITANA, CHILE",COLINA,-33.4012593,-70.5246345,FERNANDEZ WOOD S.A.,CASA,42248,135.5,277,0,2022-12-16,por definir
6,7,HACIENDA DE CHICUREO,"PIE ANDINO KM. 12, SANTIAGO, REGION METROPOLITANA, CHILE",COLINA,-33.4568417,-70.7660784,INMOBILIARIA MANQUEHUE LTDA.,CASA,42064,333.0,96,0,2022-12-16,por definir
7,8,JARDINES DE LAS PIRCAS,"CAMINO EL PASO 4265, SANTIAGO, REGION METROPOLITANA, CHILE",PEÑALOLEN,-33.5000951,-70.5256023,INMOBILIARIA MACUL S.A,CASA,42064,140.0,259,0,2022-12-16,por definir
8,9,LOMAS DE EYZAGUIRRE,"EYZAGUIRRE 2225, SANTIAGO, REGION METROPOLITANA, CHILE",PUENTE ALTO,-33.6135828,-70.5377651,ACONCAGUA S.A.,CASA,42064,59.0,450,0,2022-12-16,por definir
9,10,CONDOMINIO PARQUE YUNGAY,"POETA PEDRO PRADO 1681, SANTIAGO, REGION METROPOLITANA, CHILE",QUINTA NORMAL,-33.4251388,-70.6859707,INMOBILIARIA CARRASCAL,DEPARTAMENTO,42064,65.0,343,0,2022-12-16,por definir
10,11,LOS PORTALES DE SANTA ANA,"4 PONIENTE 1421, SANTIAGO, REGION METROPOLITANA, CHILE",MAIPU,-33.5499918,-70.7651161,TERRACORP,CASA,42248,72.0,1196,0,2022-12-16,por definir
11,12,HACIENDA EL PEÑON,"CAMINO SAN JOSE DE MAIPO 07712, SANTIAGO, REGION METROPOLITANA, CHILE",PUENTE ALTO,-33.5980585,-70.5159094999999,ACONCAGUA S.A.,CASA,42339,102.0,586,0,2022-12-16,por definir
12,13,EL REMANSO DE LAS CONDES,"EL REMANSO 11111, SANTIAGO, REGION METROPOLITANA, CHILE",LAS CONDES,-33.4187228,-70.5200684,DICAL DESARROLLO INMOBILIARIO,CASA,00-01-1900,231.5,332,0,2022-12-16,por definir
13,14,JARDINES DE SANTA MARIA,"TRES PONIENTE 2930, SANTIAGO, REGION METROPOLITANA, CHILE",MAIPU,-33.5010982,-70.7799987,INMOBILIARIA BROTEC-ICAFAL LTDA.,CASA,42064,90.0,145,0,2022-12-16,por definir
14,15,CIUDAD DE LOS REYES,"MAPOCHO 3535, SANTIAGO, REGION METROPOLITANA, CHILE",QUINTA NORMAL,-33.4328145,-70.6835416999999,CONSTRUCTORA SANTA BEATRIZ,DEPARTAMENTO,42522,45.0,1313,0,2022-12-16,por definir
15,16,LOS BRAVOS VALLE LOS TRAPENSES,"JUAN PABLO II S/N, SANTIAGO, REGION METROPOLITANA, CHILE",LO BARNECHEA,-33.3618275,-70.7114856,INMOBILIARIA MANQUEHUE - SOCOVESA,CASA,00-01-1900,232.5,265,0,2022-12-16,por definir
16,17,EDIFICIO ARCADIA,"PAJARITOS 6586, SANTIAGO, REGION METROPOLITANA, CHILE",ESTACION CENTRAL,-33.464893000000004,-70.7239592,INMOBILIARIA LAGO RINIHUE LTDA.,DEPARTAMENTO,42522,52.5,513,0,2022-12-16,por definir
17,18,ALTOS DEL RACO,"CAMILO HENRIQUEZ 1040, SANTIAGO, REGION METROPOLITANA, CHILE",PUENTE ALTO,-33.5495726,-70.6847683,CONSTRUCTORA QUEYLEN,CASA,42705,88.5,667,0,2022-12-16,por definir
18,19,LA SIERRA DE CHICUREO,"EL ALBA S/N, SANTIAGO, REGION METROPOLITANA, CHILE",COLINA,-33.5104553,-70.553288,ADMINISTRADORA URBANA,CASA,42064,109.5,310,0,2022-12-16,por definir
19,20,CONJUNTO PORTAL DEL BOSQUE,"EL BOSQUE ESQ. CAPELLAN F. INFANTE, SANTIAGO, REGION METROPOLITANA, CHILE",MAIPU,-33.5841789,-70.7038291,INMOBILIARIA GAMA S.A.,CASA,42217,91.5,596,0,2022-12-16,por definir
20,21,AYRES DE CHICUREO,"AUTOPISTA LOS LIBERTADORES KM. 20, SANTIAGO, REGION METROPOLITANA, CHILE",COLINA,-33.3142595,-70.7038923,ACONCAGUA S.A.,CASA,42064,123.0,527,0,2022-12-16,por definir
21,22,BARRIO LAS ENCINAS,"LAS NACIONES ESQ. GARCIA SILVA, SANTIAGO, REGION METROPOLITANA, CHILE",MAIPU,-33.5271634,-70.7870303999999,CONSTRUCTORA POCURO,CASA,42064,104.0,490,0,2022-12-16,por definir
22,23,CONDOMINIO JARDINES DEL VALLE,"JUAN DE DIOS MALEBRAN S/N, SANTIAGO, REGION METROPOLITANA, CHILE",PUENTE ALTO,-33.5891373,-70.591432,ACONCAGUA S.A.,CASA,42064,81.5,474,0,2022-12-16,por definir
23,24,JARDIN PONIENTE,"BRASIL 8095, SANTIAGO, REGION METROPOLITANA, CHILE",RENCA,-33.530256,-70.5886158,INMOBILIARIA LOS SILOS LTDA.,CASA,42064,73.0,287,0,2022-12-16,por definir
24,25,PUNTA NOGALES,"PEDRO FONTOVA 6121, SANTIAGO, REGION METROPOLITANA, CHILE",HUECHURABA,-33.3674252,-70.6700094999999,SOCOVESA S.A.,CASA,42736,130.5,450,0,2022-12-16,por definir
25,26,EDIFICIO VISTA PLAZA,"JOSE MIGUEL CARRERA 5940, SANTIAGO, REGION METROPOLITANA, CHILE",SAN MIGUEL,-33.5503965,-70.6008161,INMOBILIARIA VARAS MENA S.A.,DEPARTAMENTO,42064,64.0,204,0,2022-12-16,por definir
26,27,EDIFICIO SANTA VICTORIA II,"MARIN 384, SANTIAGO, REGION METROPOLITANA, CHILE",SANTIAGO,-33.4470063,-70.6389437999999,ACONCAGUA S.A.,DEPARTAMENTO,42248,50.0,233,0,2022-12-16,por definir
27,28,TERRAZAS DE PUENTE ALTO,"EL PERAL 7078, SANTIAGO, REGION METROPOLITANA, CHILE",PUENTE ALTO,-33.5750509,-70.5414847,INMOBILIA GESTION Y DESARROLLO,CASA,42522,104.5,255,0,2022-12-16,por definir
28,29,EDIFICIO PARQUE SAN LUIS,"CRISTAL DE ABELLI 2996, SANTIAGO, REGION METROPOLITANA, CHILE",LAS CONDES,-33.411062,-70.5991100999999,INMOILIARIA SENCORP,DEPARTAMENTO,42064,574.0,25,0,2022-12-16,por definir
29,30,CONDOMINIO JARDINES DEL VALLE,"RUTA 68 N 8860, SANTIAGO, REGION METROPOLITANA, CHILE",PUDAHUEL,-33.4547649,-70.7333937,ACONCAGUA S.A.,CASA,42064,82.0,206,0,2022-12-16,por definir
30,31,CONDOMINIO ALTOS DE VIVACETA,"VIVACETA 3750, SANTIAGO, REGION METROPOLITANA, CHILE",CONCHALI,-33.395182,-70.6762581,PACAL GRUPO INMOBILIARIO,DEPARTAMENTO,42064,56.0,276,0,2022-12-16,por definir
31,32,LOS CASTAÑOS DE LAS VIZCACHAS,"AV. CENTRAL 1725, SANTIAGO, REGION METROPOLITANA, CHILE",PUENTE ALTO,-33.4133914,-70.6637275,INMOBILIARIA LOS CASTAÑOS DE LAS VIZCACHAS LTDA.,CASA,42064,91.0,277,0,2022-12-16,por definir
32,33,CUMBRES DE NOS,"CAMINO PADRE HURTADO ESQUINA QUINAHUE, SANTIAGO, REGION METROPOLITANA, CHILE",SAN BERNARDO,-33.639927,-70.6718623,INMOBILIA GESTION Y DESARROLLO,CASA,42339,104.5,188,0,2022-12-16,por definir
33,34,VALLE ESCONDIDO,"GENERAL URRUTIA 460, SANTIAGO, REGION METROPOLITANA, CHILE",SAN BERNARDO,-33.61584,-70.70591,INMOBILIARIA LOS SILOS LTDA.,CASA,42064,65.0,318,0,2022-12-16,por definir
34,35,EDIFICIO MIRADOR SAN DAMIAN,"LOS TULIPEROS SUR 13201, SANTIAGO, REGION METROPOLITANA, CHILE",LAS CONDES,-33.380907,-70.5001723,ENACO S.A.,DEPARTAMENTO,42064,298.0,126,0,2022-12-16,por definir
35,36,ASTRA II,"PRESIDENTE KENNEDY CON GERONIMO DE ALDERETE, SANTIAGO, REGION METROPOLITANA, CHILE",LAS CONDES,-33.3943699,-70.5618254,INMOBILIARIA ASTRA I,DEPARTAMENTO,42064,135.0,117,0,2022-12-16,por definir
36,37,LOS PORTALES DE SAN FRANCISCO - PASEO PIE ANDINO,"TRONCAL SAN FRANCISCO 1600 ESQUINA PIE ANDINO, SANTIAGO, REGION METROPOLITANA, CHILE",PUENTE ALTO,-33.5924021,-70.5531756,TERRACORP,CASA,42064,77.5,321,0,2022-12-16,por definir
37,38,BARRIO PRIVADO LOS CASTAÑOS DE MAIPU,"4 PONIENTE CON ALFREDO SILVA CARVALLO, SANTIAGO, REGION METROPOLITANA, CHILE",MAIPU,-33.5321203,-70.7933018,INMOBILIARIA PATAGONIA,CASA,42461,71.0,450,1,2022-12-16,por definir
38,39,CONDOMINIO SAN FERNANDO,"SAN FERNANDO 1477 , SANTIAGO, REGION METROPOLITANA, CHILE",CONCHALI,-33.3928455,-70.6669885,VIVIENDAS 2000 LTDA.,DEPARTAMENTO,42064,52.0,400,0,2022-12-16,por definir
39,40,ALTOS DE LA FLORIDA,"DIEGO PORTALES 1630, SANTIAGO, REGION METROPOLITANA, CHILE",LA FLORIDA,-33.56025,-70.5657899999999,PACAL GRUPO INMOBILIARIO,DEPARTAMENTO,42064,57.5,270,0,2022-12-16,por definir
40,41,CASAS DEL PARQUE II,"LOS SUSPIROS 16561, SANTIAGO, REGION METROPOLITANA, CHILE",SAN BERNARDO,-33.6123815,-70.6877877,BESALCO INMOBILIARIA S.A.,CASA,42430,60.5,336,0,2022-12-16,por definir
41,42,HARAS DE SAN BERNARDO,"PADRE HURTADO 16355, SANTIAGO, REGION METROPOLITANA, CHILE",SAN BERNARDO,-33.6090728,-70.6841958,BESALCO INMOBILIARIA S.A.,CASA,42217,84.5,361,0,2022-12-16,por definir
42,43,LAGUNA DEL SOL,"KM 26 CAMINO A MELIPILLA, SANTIAGO, REGION METROPOLITANA, CHILE",PADRE HURTADO,-33.5560402,-70.7984608,ACONCAGUA S.A.,CASA,42064,111.0,476,1,2022-12-16,por definir
43,44,CONDOMINIO LOS LITRES,"PASEO PIE ANDINO / CAMINO SANTA MARTINA, SANTIAGO, REGION METROPOLITANA, CHILE",LO BARNECHEA,-33.308605,-70.540925,FERNANDEZ WOOD S.A.,CASA,42522,274.5,265,0,2022-12-16,por definir
44,45,ESTANCIA LIRAY,"CARRETERA GENERAL SAN MARTIN 2000, SANTIAGO, REGION METROPOLITANA, CHILE",COLINA,-33.3543881,-70.6928293,INMOBILIARIA MANQUEHUE LTDA.,CASA,42064,97.5,328,0,2022-12-16,por definir
45,46,LOMAS DEL CARMEN,"EL CARMEN S/N, SANTIAGO, REGION METROPOLITANA, CHILE",HUECHURABA,-33.5156657,-70.763443,ENACO S.A.,CASA,42248,135.5,197,0,2022-12-16,por definir
46,47,CONDOMINIO SANTA BERNARDITA,"GRAN AVDA JOSE MIGUEL CARRERA 12030, SANTIAGO, REGION METROPOLITANA, CHILE",EL BOSQUE,-33.5672187,-70.6851855,VAIN S.A.,DEPARTAMENTO,42064,55.0,510,0,2022-12-16,por definir
47,48,SANTA MARIA DEL PEÑON,"EL PERAL 07284, SANTIAGO, REGION METROPOLITANA, CHILE",PUENTE ALTO,-33.5752413,-70.5391612,BROTEC - ICAFAL,CASA,42064,116.5,284,0,2022-12-16,por definir
48,49,CONDOMINIO PARQUE CIUDAD DEL NIÑO,"CENTENARIO 1000, SANTIAGO, REGION METROPOLITANA, CHILE",SAN MIGUEL,-33.513669,-70.6531208,GRUPO ESPAÑA INMOBILIARIA,DEPARTAMENTO,42064,45.5,460,0,2022-12-16,por definir
49,50,CUMBRES DE HUECHURABA,"SANTA MARTA DE HUECHURABA 7450, SANTIAGO, REGION METROPOLITANA, CHILE",HUECHURABA,-33.3529639,-70.6781543,ACONCAGUA S.A.,DEPARTAMENTO,42217,78.0,324,0,2022-12-16,por definir
50,51,LAGUNA DE CONDORES - CONDOMINIO LOS ROBLES,"PADRE HURTADO 18341, SANTIAGO, REGION METROPOLITANA, CHILE",SAN BERNARDO,-33.6226796,-70.6812518,SOCOVESA S.A.,CASA,42064,91.0,283,0,2022-12-16,por definir
51,52,LAGUNA DE CONDORES - CONDOMINIO LOS ALAMOS,"PADRE HURTADO 18341, SANTIAGO, REGION METROPOLITANA, CHILE",SAN BERNARDO,-33.6226796,-70.6812518,SOCOVESA S.A.,CASA,42064,113.0,134,0,2022-12-16,por definir
52,53,PUNTA DE AGUILAS,"GOLF DE MANQUEHUE CON PUNTA DE AGUILAS, SANTIAGO, REGION METROPOLITANA, CHILE",LO BARNECHEA,-33.3412926,-70.5610550999999,ACONCAGUA S.A.,DEPARTAMENTO,42064,232.5,36,0,2022-12-16,por definir
53,54,CONDOMINIO FALDEO LAS PIRCAS,"AV. LAS PERDICES 4160, SANTIAGO, REGION METROPOLITANA, CHILE",PEÑALOLEN,-33.4938633,-70.5417179,INMOBILIARIA MACUL S.A,CASA,42522,133.0,102,0,2022-12-16,por definir
54,55,LA DEHESA DE LA VIÑA,"LAS PALMAS S/N ESQUINA DIEGO PORTALES, SANTIAGO, REGION METROPOLITANA, CHILE",PUENTE ALTO,-33.5370343,-70.5422609,INMOB. DEHESA DE LA VIÑA,CASA,42156,113.5,68,1,2022-12-16,por definir
55,56,PORTADA DE HUECHURABA,"PEDRO FONTOVA 6555, SANTIAGO, REGION METROPOLITANA, CHILE",HUECHURABA,-33.367031,-70.6699393,CONSTRUCTORA POCURO,CASA,42522,140.0,270,0,2022-12-16,por definir
56,57,CONDOMINIO MIRADOR DE LO CAMPINO,"LO CAMPINO - AMERICO VESPUCIO NORTE, SANTIAGO, REGION METROPOLITANA, CHILE",QUILICURA,-33.4017104,-70.5872602,INMOBILIARIA LO CAMPINO,CASA,42064,112.0,198,0,2022-12-16,por definir
57,58,CONDOMINIO CUMBRES,"ALVARO CASANOVA 355, SANTIAGO, REGION METROPOLITANA, CHILE",PEÑALOLEN,-33.4561544,-70.5209127,CONSTRUCTORA POCURO,CASA,42248,140.0,128,0,2022-12-16,por definir
58,59,LOS OLIVOS DE SAN RAFAEL,"EL TRANQUE 14400, SANTIAGO, REGION METROPOLITANA, CHILE",LO BARNECHEA,-33.3606275,-70.5166718999999,ALMAGRO S.A.,DEPARTAMENTO,42064,442.5,12,0,2022-12-16,por definir
59,60,EDIFICIOS LOS CACTUS,"LOS CACTUS 1898, SANTIAGO, REGION METROPOLITANA, CHILE",LO BARNECHEA,-33.3559302,-70.5195335,FORTALEZA,DEPARTAMENTO,42064,104.5,168,0,2022-12-16,por definir
60,61,CONDOMINIO LOS PRESIDENTES,"LOS PRESIDENTES 3349, SANTIAGO, REGION METROPOLITANA, CHILE",PEÑALOLEN,-33.4814693,-70.5736452,ACONCAGUA S.A.,DEPARTAMENTO,42614,82.5,260,0,2022-12-16,por definir
61,62,CONDOMINIO PLAZA VERDE,"EL GUANACO 1560, SANTIAGO, REGION METROPOLITANA, CHILE",HUECHURABA,-33.3667,-70.6666999999999,INMOBILIARIA ICTINOS,CASA,42248,133.0,122,0,2022-12-16,por definir
62,63,VALLE VESPUCIO NORTE - CASAS,"LAS TORRES 750, SANTIAGO, REGION METROPOLITANA, CHILE",HUECHURABA,-33.444883,-70.7309959999999,SOC. INMOBILIARIA E INVERSIONES BIO BIO S.A.,CASA,42064,78.0,154,0,2022-12-16,por definir
63,64,CONDOMINIO PARQUE HUECHURABA,"EL CARMEN 1540 CON PEDRO FONTOVA, SANTIAGO, REGION METROPOLITANA, CHILE",HUECHURABA,-33.5137155,-70.763333,INMOBILIARIA ALMAHUE,DEPARTAMENTO,42064,71.0,232,0,2022-12-16,por definir
64,65,CUMBRES DE LA VIÑA,"ROJAS MAGALLANES CON EL HUALLE, SANTIAGO, REGION METROPOLITANA, CHILE",LA FLORIDA,-33.5354997,-70.5523524,ENACO S.A.,CASA,42552,140.0,195,0,2022-12-16,por definir
65,66,EDIFICIO TO BE,"LOS BARBECHOS 100, SANTIAGO, REGION METROPOLITANA, CHILE",LAS CONDES,-33.4032298,-70.5574863,ARMAS INMOBILIARIA,DEPARTAMENTO,42064,43.0,130,0,2022-12-16,por definir
66,67,CASAS LA LLAVERIA,"FLORENCIO INFANTE, SANTIAGO, REGION METROPOLITANA, CHILE",MAIPU,-33.5456202,-70.7875484,INMOBILIARIA LA LLAVERIA,CASA,42064,108.0,75,0,2022-12-16,por definir
67,68,CUMBRES DE LAS PIRCAS,"CAMINO EL PASO 4265, SANTIAGO, REGION METROPOLITANA, CHILE",PEÑALOLEN,-33.5000951,-70.5256023,INMOBILIARIA MACUL S.A,CASA,42370,213.5,155,0,2022-12-16,por definir
68,69,EDIFICIO DE LA RECOLETA URBANO,"RECOLETA 50, SANTIAGO, REGION METROPOLITANA, CHILE",RECOLETA,-33.4141178,-70.6437787,EMPRESAS NAVARRETE Y DIAZ CUMSILLE,DEPARTAMENTO,42064,47.5,277,0,2022-12-16,por definir
69,70,EDIFICIO CONEXION,"SAN DIEGO 259, SANTIAGO, REGION METROPOLITANA, CHILE",SANTIAGO,-33.4486213,-70.6509928,PAZ INMOBILIARIA,DEPARTAMENTO,42064,46.0,469,0,2022-12-16,por definir
70,71,VALLE DEL SOL,"EL TREBOL S/N, SANTIAGO, REGION METROPOLITANA, CHILE",PADRE HURTADO,-33.5451791,-70.8296208,ENACO S.A.,CASA,42339,65.5,284,1,2022-12-16,por definir
71,72,MIRADOR DE CHAMISERO,"LOS SAGRADOS CORAZONES 136 - VALLE NORTE, SANTIAGO, REGION METROPOLITANA, CHILE",COLINA,-33.3961217,-70.598024,SOCOVESA S.A.,CASA,42064,155.0,186,0,2022-12-16,por definir
72,73,EDIFICIO EVOLUCION,"TARAPACA 870, SANTIAGO, REGION METROPOLITANA, CHILE",SANTIAGO,-33.4470425,-70.6484256999999,GRUPO PAZ S.A.,DEPARTAMENTO,42522,51.5,394,0,2022-12-16,por definir
73,74,VISTA ANDES,"CAMINA PUNTA AGUILAS 4610, SANTIAGO, REGION METROPOLITANA, CHILE",LO BARNECHEA,-33.331777,-70.5540796,INMOBILIARIA VISTA ANDES I S.A,DEPARTAMENTO,42064,402.5,10,0,2022-12-16,por definir
74,75,ALTAVISTA DE ALTOMACUL,"CAMINO DEL PAISAJE 6546, SANTIAGO, REGION METROPOLITANA, CHILE",LA FLORIDA,-33.5111055,-70.52864,INMOBILIARIA SINERGIA S.A.,DEPARTAMENTO,42278,81.5,172,0,2022-12-16,por definir
75,76,CONDOMINIO ALTO CASARES,"RODOLFO JARAMILLO 1136, SANTIAGO, REGION METROPOLITANA, CHILE",PADRE HURTADO,-33.5602837,-70.8130965,CONSTRUCTORA EBCO,CASA,42064,88.0,313,0,2022-12-16,por definir
76,77,CONDOMINIO PIE ANDINO,"TOBALABA 1400, SANTIAGO, REGION METROPOLITANA, CHILE",PUENTE ALTO,-33.4408477,-70.5686072,RVC INGENIERIA Y CONSTRUCCION,CASA,42064,90.0,213,0,2022-12-16,por definir
77,78,ALTO EL MANZANO -BARRIO COSTANERA,"PANAMERICANA NORTE, KG. 35 (TIL TIL), SANTIAGO, REGION METROPOLITANA, CHILE",COLINA,-25.8986169,-70.4817232,INMOBILIARIA ALTOS DEL HUERTO,CASA,42064,123.0,110,0,2022-12-16,por definir
78,79,ALTO EL MANZANO - LA CUMBRE,"PANAMERICANA NORTE, KG. 35 (TIL TIL), SANTIAGO, REGION METROPOLITANA, CHILE",COLINA,-25.8986169,-70.4817232,INMOBILIARIA ALTOS DEL HUERTO,CASA,42064,103.0,151,0,2022-12-16,por definir
79,80,CUMBRE SAN DAMIAN VI,"FRANCISCO DE ASIS 2140, SANTIAGO, REGION METROPOLITANA, CHILE",LAS CONDES,-33.4734841,-70.6435793,ACONCAGUA S.A.,CASA,42339,318.0,48,0,2022-12-16,por definir
80,81,CONDOMINIO PARQUE DEL VALLE - EDIFICIO EL ROBLE,"PEDRO FONTOVA 7150, SANTIAGO, REGION METROPOLITANA, CHILE",HUECHURABA,-33.3561289,-70.6709848,STITCHKIN GESTION INMOBILIARIA,DEPARTAMENTO,42064,81.0,64,0,2022-12-16,por definir
81,82,CUMBRES DEL CONDOR,"LA VENDIMIA S/N, SANTIAGO, REGION METROPOLITANA, CHILE",VITACURA,-33.4856544,-70.555944,INMOBILIARIA MANQUEHUE LTDA.,DEPARTAMENTO,42064,260.0,53,0,2022-12-16,por definir
82,83,CASAS DEL ALTO,"CARDENAL OVIEDO 1154, SANTIAGO, REGION METROPOLITANA, CHILE",PUENTE ALTO,-33.5983686,-70.5497285,LOS SILOS INMOBILIARIA,CASA,42064,61.0,161,0,2022-12-16,por definir
83,84,ALTOS DEL BOSQUE,"MACUL ALTO 6801, SANTIAGO, REGION METROPOLITANA, CHILE",LA FLORIDA,-33.5142796,-70.5242456,ENACO S.A.,CASA,00-01-1900,117.0,119,0,2022-12-16,por definir
84,85,CONCEPTO MOVE,"SERRANO 605, SANTIAGO, REGION METROPOLITANA, CHILE",SANTIAGO,-33.4525345,-70.6479219,ARMAS INMOBILIARIA,DEPARTAMENTO,42339,38.0,418,0,2022-12-16,por definir
85,86,PARRONALES DE NOS,"SANTA INES 18320, SANTIAGO, REGION METROPOLITANA, CHILE",SAN BERNARDO,-33.6265397,-70.687869,PILARES INMOBILIARIA,CASA,42064,52.0,215,0,2022-12-16,por definir
86,87,3800 DUBLE,"DUBLE ALMEYDA 3800, SANTIAGO, REGION METROPOLITANA, CHILE",ÑUÑOA,-33.4568728,-70.5898924999999,INMOBILIARIA BUENAVENTURA SPA,DEPARTAMENTO,43891,69.0,35,1,2022-12-16,por definir
87,88,LAS ARAUCARIAS DE COLINA,"ARAUCARIA 286, SANTIAGO, REGION METROPOLITANA, CHILE",COLINA,-33.4072403,-70.7158788,INMOBILIARIA PY S.A.,CASA,42064,53.5,153,0,2022-12-16,por definir
88,89,CONDOMINIO TIERRA DEL FUEGO,"SANTA LAURA 650, SANTIAGO, REGION METROPOLITANA, CHILE",QUILICURA,-33.3603142,-70.746386,PILARES INMOBILIARIA,CASA,42064,50.0,160,0,2022-12-16,por definir
89,90,PARQUE DE RIESCO EDIFICIO ALDERETE,"PRESIDENTE RIESCO 7044, SANTIAGO, REGION METROPOLITANA, CHILE",LAS CONDES,-33.3969023,-70.5603955999999,SIENA INMOBILIARIA S.A.,DEPARTAMENTO,42522,106.0,98,0,2022-12-16,por definir
90,91,EDIFICIO JARDIN DEL ALTO,"JARDIN ALTO 9700, SANTIAGO, REGION METROPOLITANA, CHILE",LA FLORIDA,-33.5425593,-70.5547689,LOS SILOS INMOBILIARIA,DEPARTAMENTO,42339,68.5,135,0,2022-12-16,por definir
91,92,ALBA LO CAMPINO,"LAS TORRES 376, SANTIAGO, REGION METROPOLITANA, CHILE",QUILICURA,-33.4582065,-70.7319754999999,INMOBILIARIA MANQUEHUE LTDA.,CASA,42064,82.0,250,1,2022-12-16,por definir
92,93,EDIFICIO MORANDE 626,"MORANDE 626, SANTIAGO, REGION METROPOLITANA, CHILE",SANTIAGO,-33.4363182,-70.6542767999999,GRAN MUNDO,DEPARTAMENTO,42064,51.5,393,0,2022-12-16,por definir
93,94,FUNDADORES DE LO CAMPINO IX,"ARANJUEZ 441, SANTIAGO, REGION METROPOLITANA, CHILE",QUILICURA,-33.3844407,-70.7241114999999,INMOBILIARIA MANQUEHUE LTDA. - ALTERRA,CASA,42064,117.0,106,0,2022-12-16,por definir
94,95,CONDOMINIO LAUTARO - CIUDAD SATELITE,"LAUTARO 18801, SANTIAGO, REGION METROPOLITANA, CHILE",MAIPU,-33.5913824,-70.6462225,SOCOVESA S.A.,CASA,42064,84.0,172,0,2022-12-16,por definir
95,96,EDIFICIO PARQUE MONASTERIO II,"VALLE DEL MONASTERIO 2656, SANTIAGO, REGION METROPOLITANA, CHILE",LO BARNECHEA,-33.34936,-70.5466699999999,GESTORA,DEPARTAMENTO,42064,147.0,56,0,2022-12-16,por definir
96,97,EDIFICIOS PARQUE LO GALLO II,"MONSEÑOR ESCRIVA DE BALAGUER 9211, SANTIAGO, REGION METROPOLITANA, CHILE",VITACURA,-33.3761878,-70.5495246,VIVIENDAS 2000 LTDA.,DEPARTAMENTO,42064,155.0,136,0,2022-12-16,por definir
97,98,BORDE BLANCO,"GENERAL SAN MARTIN KM 18,8, SANTIAGO, REGION METROPOLITANA, CHILE",COLINA,-33.367484,-70.7381018,ACONCAGUA S.A.,CASA,42430,165.0,65,1,2022-12-16,por definir
98,99,CONDOMINIO ARQ SAN MIGUEL,"SAN NICOLAS 1480, SANTIAGO, REGION METROPOLITANA, CHILE",SAN MIGUEL,-33.4971395,-70.6620628,NAVARRETE Y DIAZ CURSILLE,DEPARTAMENTO,42064,75.5,152,0,2022-12-16,por definir
99,100,EDIFICIO ECO ESPACIO,"SAN ISIDRO 526, SANTIAGO, REGION METROPOLITANA, CHILE",SANTIAGO,-33.4507563,-70.6426482,INMOBILIARIA FUNDAMENTA,DEPARTAMENTO,42248,51.0,183,0,2022-12-16,por definir
100,101,EDIFICIO PLAZA MIRADOR,"ZENTENO 998, SANTIAGO, REGION METROPOLITANA, CHILE",SANTIAGO,-33.4584942,-70.6507242,PLAZA DE ARMAS,DEPARTAMENTO,42064,51.5,98,0,2022-12-16,por definir
101,102,BARRIO ALTO EL HUALLE,"TOBALABA 9550 - EL HUALLE SUR 9533, SANTIAGO, REGION METROPOLITANA, CHILE",LA FLORIDA,-33.5404761,-70.5503801,SIP,CASA,42064,132.0,70,0,2022-12-16,por definir
102,103,CONDOMINIO CANQUEN NORTE,"SERGIO CORREA CON LOS RIOS - ACCESO JOSE RABAT, SANTIAGO, REGION METROPOLITANA, CHILE",COLINA,-33.5462196,-70.5753715,SIENA INMOBILIARIA S.A.,CASA,42095,216.5,126,0,2022-12-16,por definir
103,104,JARDIN DEL CANTO,"CHAMISERO 15921, SANTIAGO, REGION METROPOLITANA, CHILE",COLINA,-33.3196272,-70.6497066,SECURITY,CASA,42064,183.0,126,0,2022-12-16,por definir
104,105,EDIFICIO EXPLORA,"CAMINO LA VILLA 957, SANTIAGO, REGION METROPOLITANA, CHILE",LO BARNECHEA,-33.3633363,-70.5231931,CADOS INMOBILIARI,DEPARTAMENTO,42064,142.5,24,0,2022-12-16,por definir
105,106,SAN LEON,"CAMINO LOS MORROS 977, SANTIAGO, REGION METROPOLITANA, CHILE",SAN BERNARDO,-33.6396425,-70.6889691,INMOBILIARIA PY S.A.,CASA,42064,75.5,64,1,2022-12-16,por definir
106,107,BARRIO PRIVADO LAGARES,"EL ALGARROBO S/N ( VTAS. I. GOYENECHEA 3365-OF.204, SANTIAGO, REGION METROPOLITANA, CHILE",COLINA,-33.4147396,-70.595512,ALTERRA,CASA,42064,270.0,72,0,2022-12-16,por definir
107,108,BARRIO RESIDENCIAL FALDEOS DE NOS,"PADRE HURTADO 17200, SANTIAGO, REGION METROPOLITANA, CHILE",SAN BERNARDO,-33.638033,-70.6738903999999,URBANIZA S.A.,CASA,42064,66.0,252,0,2022-12-16,por definir
108,109,PAJARITOS DEL PARQUE IV,"PAJARITOS 7179, SANTIAGO, REGION METROPOLITANA, CHILE",MAIPU,-33.4701552,-70.7355018,INCOMAC - RICARDO VIAL,DEPARTAMENTO,42064,54.5,101,0,2022-12-16,por definir
109,110,CONDOMINIO PARQUE SANTOS DUMONT,"PRESIDENTE ANNIBAL PINTO 1393, SANTIAGO, REGION METROPOLITANA, CHILE",INDEPENDENCIA,-33.4003806,-70.750613,INMOBILIARIA MAESTRA,DEPARTAMENTO,42064,47.0,299,0,2022-12-16,por definir
110,111,CONDOMINIO PLAZA VERDE II,"EL GUANACO 1570, SANTIAGO, REGION METROPOLITANA, CHILE",HUECHURABA,-33.3667,-70.6666999999999,INMOBILIARIA ICTINOS,CASA,42064,124.0,78,0,2022-12-16,por definir
111,112,VALLE DEL ALBA - CIUDAD DE LOS VALLES,"PASEO LOS VALLES - CIUDAD DE LOS VALLES, SANTIAGO, REGION METROPOLITANA, CHILE",PUDAHUEL,-33.4480802,-70.840488,ENACO S.A.,CASA,42064,104.0,107,0,2022-12-16,por definir
112,113,EDIFICIO SEDUCCION,"VICUNA MACKENNA 1431 - VTAS. TOBALABA 870, SANTIAGO, REGION METROPOLITANA, CHILE",SANTIAGO,-33.4610673,-70.6285147,PAZ INMOBILIARIA,DEPARTAMENTO,42156,51.5,255,0,2022-12-16,por definir
113,114,EDIFICIO ATRACCION,"SAN FRANCISCO 250, SANTIAGO, REGION METROPOLITANA, CHILE",SANTIAGO,-33.4474937,-70.6468484,PAZ INMOBILIARIA,DEPARTAMENTO,42064,40.0,235,0,2022-12-16,por definir
114,115,EDIFICIO VISTA DEL PARQUE,"LORD COCHRANE 1011 - VTAS ARGOMEDO 109, SANTIAGO, REGION METROPOLITANA, CHILE",SANTIAGO,-33.4589904,-70.6536505,RVC INGENIERIA Y CONSTRUCCION,DEPARTAMENTO,42064,64.0,126,0,2022-12-16,por definir
115,116,EDIFICIO DON VICENTE II,"VICUNA MACKENNA 7801, SANTIAGO, REGION METROPOLITANA, CHILE",LA FLORIDA,-33.5261791,-70.5973501,VIDA NUEVA,DEPARTAMENTO,42064,51.0,315,0,2022-12-16,por definir
116,117,HACIENDA CONQUISTADORES - BARRIO LOS HIDALGOS,"SAN CARLOS NORTE 2128, SANTIAGO, REGION METROPOLITANA, CHILE",PUENTE ALTO,-33.5954179,-70.5501833,BESALCO INMOBILIARIA S.A.,CASA,42644,75.5,428,0,2022-12-16,por definir
117,118,EDIFICIO SAN IGNACIO,"SAN IGNACIO 4820, SANTIAGO, REGION METROPOLITANA, CHILE",SAN MIGUEL,-33.4957454,-70.6586392,ENACO S.A.,DEPARTAMENTO,42156,66.0,144,0,2022-12-16,por definir
118,119,ALTO MIRADOR,"RUTA 68 - KM 12,5, SANTIAGO, REGION METROPOLITANA, CHILE",PUDAHUEL,-33.5105883,-70.8035637,FUENZALIDA DESARROLLOS INMOBILIARIOS,CASA,42522,111.5,125,0,2022-12-16,por definir
119,120,DEPARTAMENTOS CHARLES HAMILTON,"CHARLES HAMILTON 11437, SANTIAGO, REGION METROPOLITANA, CHILE",LAS CONDES,-33.386081,-70.5193583,VIZCAYA INMOBILIARIA,DEPARTAMENTO,42064,349.0,11,0,2022-12-16,por definir
120,121,EDIFICIO FRAY MONTALVA,"FRAY MONTALVA 102 - LAS CONDES ALT 12000, SANTIAGO, REGION METROPOLITANA, CHILE",LAS CONDES,-33.3709219,-70.5079167,CIDEPA S.A.,DEPARTAMENTO,42064,58.0,198,0,2022-12-16,por definir
121,122,EDIFICIO BELLAVISTA DE LA FLORIDA II,"VICUNA MACKENNA ORIENTE 7320, SANTIAGO, REGION METROPOLITANA, CHILE",LA FLORIDA,-33.520454,-70.5985679,RICARDO VIAL,DEPARTAMENTO,42064,55.0,215,0,2022-12-16,por definir
122,123,CONDOMINIO PUNTA AGUILAS NORTE II,"CAMINO PUNTA DE AGUILAS 4570, SANTIAGO, REGION METROPOLITANA, CHILE",LO BARNECHEA,-33.3363961,-70.5620276,ACONCAGUA S.A.,DEPARTAMENTO,00-01-1900,251.0,36,0,2022-12-16,por definir
123,124,PUNTA PIMIENTOS,"PEDRO FONTOVA 6121, SANTIAGO, REGION METROPOLITANA, CHILE",HUECHURABA,-33.3674252,-70.6700094999999,SOCOVESA S.A.,CASA,00-01-1900,130.5,82,0,2022-12-16,por definir
124,125,EL REMANSO DE CHICUREO,"CALETERA GRAL SAN MARTIN KM 14 - SALIDA LO ARCAYA, SANTIAGO, REGION METROPOLITANA, CHILE",COLINA,-33.3876062,-70.5804227,BROTEC - ICAFAL,CASA,42186,132.5,250,0,2022-12-16,por definir
125,126,CONDOMINIO JARDIN ORIENTE - ALTO EL MANZANO,"LOS MAITENES CON JARDIN ORIENTE, SANTIAGO, REGION METROPOLITANA, CHILE",COLINA,-33.4848606,-70.5486401,RICARDO VIAL,CASA,42064,117.5,71,0,2022-12-16,por definir
126,127,ALFREDO NOBEL,"PREMIO NOBEL 3235, SANTIAGO, REGION METROPOLITANA, CHILE",MACUL,-33.4733946,-70.5967000999999,FLESAN ACTIVOS INMOBILIARIOS,DEPARTAMENTO,42887,84.0,58,0,2022-12-16,por definir
127,128,ALONSO DE ERCILLA,"ALONSO DE ERCILLA 3100, SANTIAGO, REGION METROPOLITANA, CHILE",ÑUÑOA,-33.45172,-70.5974799999999,CASTRO Y TAGLE INMOBILIARIA SPA,DEPARTAMENTO,43891,66.0,112,0,2022-12-16,por definir
128,129,CONDOMINIO LOS OLIVOS DE MAIPU,"EL ROSAL 6032, SANTIAGO, REGION METROPOLITANA, CHILE",MAIPU,-33.3702925,-70.64953,INMOBILIARIA HCG,CASA,42064,100.0,290,0,2022-12-16,por definir
129,130,EDIFICIO PETRA - SPACIO ( EX EDIFICIO EL TRANQUE),"EL TRANQUE 12189, SANTIAGO, REGION METROPOLITANA, CHILE",LO BARNECHEA,-33.3598801,-70.5231931,BERRIOS ZEGERS,DEPARTAMENTO,42064,121.0,33,0,2022-12-16,por definir
130,131,ALSINO TOWNHOUSES,"PEDRO PRADO 4470, SANTIAGO, REGION METROPOLITANA, CHILE",MACUL,-33.4946905,-70.5973501,SANDRA OLGUIN,CASA,43070,87.5,5,0,2022-12-16,por definir
131,132,EDIFICIO ECO TERRA,"ANTONIO VARAS 847, SANTIAGO, REGION METROPOLITANA, CHILE",PROVIDENCIA,-33.4351647,-70.6152456,INMOBILIARIA FUNDAMENTA,DEPARTAMENTO,42064,71.0,64,0,2022-12-16,por definir
132,133,LOS MADEROS DE PIEDRA ROJA,"GUAY GUAY S/N CON PADRE SERGIO CORREA, SANTIAGO, REGION METROPOLITANA, CHILE",COLINA,-33.2657195,-70.6241556,INMOBILIARIA MANQUEHUE LTDA.,CASA,42217,160.0,228,0,2022-12-16,por definir
133,134,BARRIO ALTO - CONDOMINIO PRIVADO LOS QUELTEHUES,"RUTA 68 KM 12,5 , SANTIAGO, REGION METROPOLITANA, CHILE",PUDAHUEL,-33.5105883,-70.8035637,AD-PORTAS,CASA,42064,98.5,160,0,2022-12-16,por definir
134,135,BARRIO APOSTOLES,"AMERICO VESPUCIO 1700, SANTIAGO, REGION METROPOLITANA, CHILE",CERRILLOS,-33.5078782,-70.7246689,INMOBILIARIA ALFA,DEPARTAMENTO,42064,57.5,270,0,2022-12-16,por definir
135,136,CONDOMINIO LA VIÑA,"LA VIÑA 1547, SANTIAGO, REGION METROPOLITANA, CHILE",HUECHURABA,-33.6092996,-70.5981951999999,HABITA NET GESTION INMOBILIARIA,CASA,42064,137.5,43,0,2022-12-16,por definir
136,137,LOMAS DE CHAMISERO,"CHAMISERO SN, SANTIAGO, REGION METROPOLITANA, CHILE",COLINA,-33.3161845,-70.6553448,HABITA NET GESTION INMOBILIARIA,CASA,42064,167.0,47,0,2022-12-16,por definir
137,138,EDIFICIO PORTAL INDEPENDENCIA III,"INDEPENDENCIA 1801 -VTAS INDEPENDENCIA 801, SANTIAGO, REGION METROPOLITANA, CHILE",INDEPENDENCIA,-33.4104167,-70.6593637,EUROINMOBILARIA S.A.,DEPARTAMENTO,42248,39.0,400,0,2022-12-16,por definir
138,139,BARRIO PRIVADO MONTEPIEDRA,"CHICUREO SN, SANTIAGO, REGION METROPOLITANA, CHILE",COLINA,-33.2697886,-70.6790384999999,INMOBILIARIA MANQUEHUE LTDA.,CASA,42064,220.0,229,0,2022-12-16,por definir
139,140,CONDOMINIO ALTOS DE CHAMISERO,"CHAMISERO 13492, SANTIAGO, REGION METROPOLITANA, CHILE",COLINA,-33.3178174,-70.6552885,INMOBILIARIA PARQUE CHAMISERO,CASA,42125,175.5,127,0,2022-12-16,por definir
140,141,EDIFICIO EL DANTE,"EL DANTE 4241, SANTIAGO, REGION METROPOLITANA, CHILE",LAS CONDES,-33.4119582,-70.5880782,INMOBILIARIA CREDEA,DEPARTAMENTO,42064,157.0,47,0,2022-12-16,por definir
141,142,CONDOMINIO LAS AMAPOLAS,"VALENZUELA PUELMA 10221, SANTIAGO, REGION METROPOLITANA, CHILE",LA REINA,-33.4317707,-70.5236312,RAUL DEL RIO - INMOBILIARIA ANTUCO,CASA,42064,140.0,26,0,2022-12-16,por definir
142,143,EDIFICIO EL PARDO,"REY ALBERTO 4208, SANTIAGO, REGION METROPOLITANA, CHILE",SAN MIGUEL,-33.4922774,-70.6549065,ALMAGRO S.A.,DEPARTAMENTO,42064,79.0,120,0,2022-12-16,por definir
143,144,CUMBRES LAS CONDES - QUINCHAMALI,"CAMINO QUEBRADA S/N (VTAS. APOQUINDO 6410), SANTIAGO, REGION METROPOLITANA, CHILE",LAS CONDES,-33.4077052,-70.5643599,BALTICO,CASA,42064,234.5,15,0,2022-12-16,por definir
144,145,ALTO ALESSANDRI 521,"JOSE PEDRO ALESSANDRI 521, SANTIAGO, REGION METROPOLITANA, CHILE",ÑUÑOA,-33.4596789,-70.5986746,EUROINMOBILIARIA,DEPARTAMENTO,42705,66.5,230,0,2022-12-16,por definir
145,146,EDIFICIO SAN FRANCISCO II,"SAN FRANCISCO 630, SANTIAGO, REGION METROPOLITANA, CHILE",SANTIAGO,-33.4525437,-70.6464148,RVC INGENIERIA Y CONSTRUCCION,DEPARTAMENTO,42064,57.0,182,0,2022-12-16,por definir
146,147,EDIFICIO GO,"SAN PABLO 1537, SANTIAGO, REGION METROPOLITANA, CHILE",SANTIAGO,-33.4342569,-70.6592747,PAZ INMOBILIARIA,DEPARTAMENTO,42064,51.5,293,0,2022-12-16,por definir
147,148,EDIFICIO PARQUE VIVACETA II,"NUEVA ANDRES BELLO CON VIVACETA, SANTIAGO, REGION METROPOLITANA, CHILE",INDEPENDENCIA,-33.4169718,-70.6639242,EUROINMOBILARIA S.A.,DEPARTAMENTO,42064,43.0,370,0,2022-12-16,por definir
148,149,EDIFICIO DA VINCI 6940,"LEONARDO DA VINCI 6959, SANTIAGO, REGION METROPOLITANA, CHILE",LAS CONDES,-33.4070551,-70.5564036,MOLINA MOREL INMOBILIARIA Y CONSTRUCTORA LTDA,DEPARTAMENTO,42064,96.5,58,0,2022-12-16,por definir
149,150,ALTO ALESSANDRI II,"JOSE PEDRO ALESSANDRI 927, SANTIAGO, REGION METROPOLITANA, CHILE",ÑUÑOA,-33.4633809,-70.598907,EUROINMOBILARIA S.A.,DEPARTAMENTO,43252,65.5,341,0,2022-12-16,por definir
150,151,ALTO DUBLE,"LOS TRES ANTONIOS 156, SANTIAGO, REGION METROPOLITANA, CHILE",ÑUÑOA,-33.4557951,-70.6025296,ACTUAL GRUPO INMOBILIARIO,DEPARTAMENTO,44166,62.0,165,1,2022-12-16,por definir
151,152,JARDINES DE VICUNA MACKENNA,"DIAGONAL VICUNA MACKENNA 2004, SANTIAGO, REGION METROPOLITANA, CHILE",SANTIAGO,-33.4698855,-70.6259677,INMOBILIARIA SINERGIA S.A.,DEPARTAMENTO,42522,50.0,240,0,2022-12-16,por definir
152,153,CONDOMINIO MONTE TABOR,"LA REFORMA CON AMERICO VESPUCIO, SANTIAGO, REGION METROPOLITANA, CHILE",MAIPU,-33.4806846,-70.755006,CONSTRUCTORA POCURO,DEPARTAMENTO,42064,64.0,300,0,2022-12-16,por definir
153,154,AMANDA,"BREMEN ESQUINA LA VERBENA, SANTIAGO, REGION METROPOLITANA, CHILE",ÑUÑOA,-33.4391286,-70.5790959,URBES,DEPARTAMENTO,43435,79.5,79,0,2022-12-16,por definir
154,155,DEPARTAMENTOS CROSBIE II,"CAPITAN CROSBIE 897, SANTIAGO, REGION METROPOLITANA, CHILE",LAS CONDES,-33.3961423,-70.5575772999999,ALMAHUE INMOBILIARIA,DEPARTAMENTO,42125,140.5,102,0,2022-12-16,por definir
155,156,ALTO EL ROSAL,"EL ROSAL 6361 CON AMERICO VESPUCIO, SANTIAGO, REGION METROPOLITANA, CHILE",MAIPU,-33.3699876,-70.6490223,SIP,CASA,42156,97.5,98,0,2022-12-16,por definir
156,157,EDIFICIO ECO ORIENTE,"ERNESTO HEVIA 5775, SANTIAGO, REGION METROPOLITANA, CHILE",LA REINA,-33.4544959,-70.5702627,INMOBILIARIA FUNDAMENTA,DEPARTAMENTO,42339,87.0,102,0,2022-12-16,por definir
157,158,ENTRE PARQUES,"AEROPUERTO 7407, SANTIAGO, REGION METROPOLITANA, CHILE",CERRILLOS,-33.4686206,-70.7118376,INMOBILIARIA PY S.A.,CASA,42064,114.5,161,0,2022-12-16,por definir
158,159,MIRADOR DE HUINGANAL - CASAS,"CAMINO EL HUINGANAL 3586, SANTIAGO, REGION METROPOLITANA, CHILE",LO BARNECHEA,-33.3341163,-70.5077846,AITUE,CASA,42064,265.5,22,0,2022-12-16,por definir
159,160,MIRADOR DE HUINGANAL - DPTOS,"CAMINO EL HUINGANAL 3586, SANTIAGO, REGION METROPOLITANA, CHILE",LO BARNECHEA,-33.3341163,-70.5077846,AITUE,DEPARTAMENTO,42064,283.5,18,0,2022-12-16,por definir
160,161,EDIFICIO PRINCIPE DE GALES,"PRINCIPE DE GALES CON LORELEY, SANTIAGO, REGION METROPOLITANA, CHILE",LA REINA,-33.4380305,-70.5713909,SINERGIA,DEPARTAMENTO,42125,80.0,252,0,2022-12-16,por definir
161,162,EDIFICIO PARQUE GAMBINO,"DORSAL 1392, SANTIAGO, REGION METROPOLITANA, CHILE",CONCHALI,-33.3965699,-70.6619025999999,FE GRANDE INMOBILIARIA,DEPARTAMENTO,42064,54.0,280,0,2022-12-16,por definir
162,163,EDIFICIO JARDINES DE OLIVARES,"PADRE MIGUEL DE OLIVARES 1428, SANTIAGO, REGION METROPOLITANA, CHILE",SANTIAGO,-33.4494356,-70.6554177,GRUPO MAGAL,DEPARTAMENTO,42430,61.5,466,0,2022-12-16,por definir
163,164,EDIFICIO NEO SALESIANOS,"SALESIANOS 1400, SANTIAGO, REGION METROPOLITANA, CHILE",SAN MIGUEL,-33.4911033,-70.6580665,SIMONETTI INMOBILIARIA,DEPARTAMENTO,42064,58.5,200,0,2022-12-16,por definir
164,165,EDIFICIO PARQUE SAN MIGUEL,"VARGAS BUSTON 976, SANTIAGO, REGION METROPOLITANA, CHILE",SAN MIGUEL,-33.5084846,-70.6530477,BRIMAC,DEPARTAMENTO,42064,37.0,218,0,2022-12-16,por definir
165,166,PARQUE BRISAS NORTE,"SANTA FILOMENA CON PARQUE BRISAS NORTE - COLINA, SANTIAGO, REGION METROPOLITANA, CHILE",COLINA,-33.2175173,-70.6676047999999,ENACO S.A.,CASA,42064,103.5,163,1,2022-12-16,por definir
166,167,ALTOS DE QUILICURA - BARRIO SUR ORIENTE,"LO ZAÑARTU 133, SANTIAGO, REGION METROPOLITANA, CHILE",QUILICURA,-33.3642405,-70.7088086,ESEPE INMOBILIARIA,CASA,42675,103.0,217,0,2022-12-16,por definir
167,168,CONDOMINIO ESPACIO LIBERTAD,"LIBERTAD 1151, SANTIAGO, REGION METROPOLITANA, CHILE",SANTIAGO,-33.4316234,-70.6747104,PROHABIT,DEPARTAMENTO,42064,52.0,89,0,2022-12-16,por definir
168,169,ANDES LOS LEONES,"JOSE ARTIGAS 2896, SANTIAGO, REGION METROPOLITANA, CHILE",ÑUÑOA,-33.4452671,-70.598851,IANDES,DEPARTAMENTO,44166,65.0,115,1,2022-12-16,por definir
169,170,EDIFICIO ALVAREZ DE TOLEDO,"ALVAREZ DE TOLEDO 880, SANTIAGO, REGION METROPOLITANA, CHILE",SAN MIGUEL,-33.4909766,-70.6473783,PENTA INMOBILIARIA,DEPARTAMENTO,42339,48.0,210,0,2022-12-16,por definir
170,171,EDIFICIO ERNESTO HEVIA 5880,"ERNESTO HEVIA 5880, SANTIAGO, REGION METROPOLITANA, CHILE",LA REINA,-33.4542,-70.5693299,EMPRESA CONSTRUCTORA MOLLER Y PEREZ COTAPOS S.A.,DEPARTAMENTO,42064,109.0,87,0,2022-12-16,por definir
171,172,EDIFICIO INNOVO,"VICTOR RAE 4558, SANTIAGO, REGION METROPOLITANA, CHILE",LAS CONDES,-33.4301608,-70.5735708999999,PENTA INMOBILIARIA,DEPARTAMENTO,42125,115.0,37,0,2022-12-16,por definir
172,173,EDIFICIO EVEN,"SAN JOSE DE LA SIERRA 125, SANTIAGO, REGION METROPOLITANA, CHILE",LO BARNECHEA,-33.36606,-70.50648,PENTA INMOBILIARIA,DEPARTAMENTO,42217,98.0,127,0,2022-12-16,por definir
173,174,EDIFICIO ALTAVISTA VICENTE VALDES II,"VICUÑA MACKENNA 7735, SANTIAGO, REGION METROPOLITANA, CHILE",LA FLORIDA,-33.525383,-70.597531,21 INMOBILIARIA,DEPARTAMENTO,42064,53.5,172,0,2022-12-16,por definir
174,175,EDIFICIO CHARLES HAMILTON,"CHARLES HAMILTON 10569, SANTIAGO, REGION METROPOLITANA, CHILE",LAS CONDES,-33.3891613,-70.5249595,CONSTRUCTORA SAE,DEPARTAMENTO,42064,457.0,5,0,2022-12-16,por definir
175,176,EDIFICIO SAN NICOLAS,"SAN NICOLAS 1092, SANTIAGO, REGION METROPOLITANA, CHILE",SAN MIGUEL,-33.4999537,-70.6530245,PENTA INMOBILIARIA,DEPARTAMENTO,42064,46.0,240,0,2022-12-16,por definir
176,177,BA 4870,"BADEN 4870, SANTIAGO, REGION METROPOLITANA, CHILE",ÑUÑOA,-33.45143,-70.57973,IALTURA,DEPARTAMENTO,43435,78.0,45,0,2022-12-16,por definir
177,178,CONDOMINIO VISTA GAMERO,"GAMERO 1541, SANTIAGO, REGION METROPOLITANA, CHILE",INDEPENDENCIA,-33.4212293,-70.6614369999999,EUROINMOBILARIA S.A.,DEPARTAMENTO,42156,42.5,330,0,2022-12-16,por definir
178,179,CONDOMINIO SANTA VICTORIA,"VESPUCIO SUR EXPRESS ESQUINA 2 NORTE, SANTIAGO, REGION METROPOLITANA, CHILE",MAIPU,-33.5339544,-70.6751687,ACONCAGUA S.A.,DEPARTAMENTO,42339,58.5,171,0,2022-12-16,por definir
179,180,BADEN 32,"BADEN 4921, SANTIAGO, REGION METROPOLITANA, CHILE",ÑUÑOA,-33.4516273,-70.5792546,SURMONTE INMOBILIARIA,DEPARTAMENTO,44166,81.5,32,0,2022-12-16,por definir
180,181,EDIFICIO MARTIN ZAMORA 3131,"MARTIN ZAMORA 3131, SANTIAGO, REGION METROPOLITANA, CHILE",LAS CONDES,-33.424566,-70.5915174,SIMONETTI INMOBILIARIA,DEPARTAMENTO,42125,121.0,34,0,2022-12-16,por definir
181,182,BARRIO NOBEL,"PREMIO NOBEL 3450, SANTIAGO, REGION METROPOLITANA, CHILE",MACUL,-33.4859877,-70.5965119999999,PUERTO CAPITAL INMOBILIARIA,DEPARTAMENTO,43525,50.0,111,0,2022-12-16,por definir
182,183,CONDOMINIO BELISARIO 1840,"BELISARIO PRATS 1840, SANTIAGO, REGION METROPOLITANA, CHILE",INDEPENDENCIA,-33.4101404,-70.6546623999999,INMOBILIARIA DON BELISARIO - STICHKIN,DEPARTAMENTO,42522,39.5,215,0,2022-12-16,por definir
183,184,LA HACIENDA NATURALEZA URBANA - EL MAGNOLIO,"MIRAFLORES 8414, SANTIAGO, REGION METROPOLITANA, CHILE",RENCA,-33.399161,-70.756986,SOCOVESA S.A.,CASA,42064,86.0,120,0,2022-12-16,por definir
184,185,BARRIO SUCRE,"SUCRE 2362, SANTIAGO, REGION METROPOLITANA, CHILE",ÑUÑOA,-33.4486786,-70.6066657,INMOBILIARIA IMSA ADPORTAS,DEPARTAMENTO,43101,88.0,66,0,2022-12-16,por definir
185,186,EDIFICIO BARCELONA II,"VICUÑA MACKENNA PONIENTE 6700, SANTIAGO, REGION METROPOLITANA, CHILE",LA FLORIDA,-33.5170167,-70.6015242,VITALIA,DEPARTAMENTO,42064,53.5,211,0,2022-12-16,por definir
186,187,CONDOMINIO CONDE DEL MAULE,"CONDE DEL MAULE 4175, SANTIAGO, REGION METROPOLITANA, CHILE",ESTACION CENTRAL,-33.4527902,-70.6931962,PILARES INMOBILIARIA,DEPARTAMENTO,42064,50.0,298,0,2022-12-16,por definir
187,188,PARQUE BALMACEDA,"BALMACEDA 644, SANTIAGO, REGION METROPOLITANA, CHILE",SAN BERNARDO,-33.5851489,-70.7034783,GENESIS,DEPARTAMENTO,42064,52.0,52,0,2022-12-16,por definir
188,189,FUNDADORES DE LO CAMPINO X,"ARANJUEZ 441, SANTIAGO, REGION METROPOLITANA, CHILE",QUILICURA,-33.3844407,-70.7241114999999,INMOBILIARIA LO CAMPINO,CASA,42217,117.0,60,0,2022-12-16,por definir
189,190,CONDOMINIO LOMBARDIA,"BERTA CORREA 2010, SANTIAGO, REGION METROPOLITANA, CHILE",HUECHURABA,-33.3547878,-70.6853782,ACTUAL GRUPO INMOBILIARIO,CASA,42552,87.0,226,0,2022-12-16,por definir
190,191,BARRIO COUSIÑO MACUL BARRIO VISTA CORDILLERA IX,"TOBALABA CON QUILIN, SANTIAGO, REGION METROPOLITANA, CHILE",PEÑALOLEN,-33.4989221,-70.5605504,CONSTRUCTORA MENA Y OVALLE,CASA,42064,140.0,72,0,2022-12-16,por definir
191,192,BARRIO NUEVO DE NOS ETAPA VII,"CAMINO NOS LOS MORROS 625, SANTIAGO, REGION METROPOLITANA, CHILE",SAN BERNARDO,-33.6400337,-70.6925407,-,CASA,42064,111.0,35,0,2022-12-16,por definir
192,193,BARRIO COUSIÑO MACUL - BARRIO LA HACIENDA XI,"SANCHEZ FONTECILLA 13000, SANTIAGO, REGION METROPOLITANA, CHILE",PEÑALOLEN,-33.4986254,-70.5594813,CONSTRUCTORA MENA Y OVALLE,CASA,42095,134.5,72,0,2022-12-16,por definir
193,194,CIUDAD DEL ESTE - BARRIO PARQUE FONTECILLA,"DIEGO PORTALES / LA FLORIDA, SANTIAGO, REGION METROPOLITANA, CHILE",PUENTE ALTO,-33.5592581,-70.5576912,ACONCAGUA S.A.,DEPARTAMENTO,42614,61.0,174,0,2022-12-16,por definir
194,195,JARDINES DE LAS VIZCACHAS - BARRIO INGLES,"CAMINO SAN JOSE DE MAIPO 5879, SANTIAGO, REGION METROPOLITANA, CHILE",PUENTE ALTO,-33.5989987,-70.5201253,ACONCAGUA S.A.,CASA,42156,129.0,169,0,2022-12-16,por definir
195,196,CIRCULO CABOT III,"HERMANOS CABOT 6777, SANTIAGO, REGION METROPOLITANA, CHILE",LAS CONDES,-33.396364,-70.5628409,GRUPO ESPAÑA INMOBILIARIA,DEPARTAMENTO,42248,213.0,48,0,2022-12-16,por definir
196,197,EDIFICO DON MIGUEL,"LAZO 1368, SANTIAGO, REGION METROPOLITANA, CHILE",SAN MIGUEL,-33.4986154,-70.6604184,INMOBILIARIA CARAHUE,DEPARTAMENTO,42064,71.0,111,0,2022-12-16,por definir
197,198,LLANORIENTE - EDIFICIO CURIÑANCA,"CURIÑANCA 869, SANTIAGO, REGION METROPOLITANA, CHILE",SAN MIGUEL,-33.4896684,-70.6463239999999,INMOBILIARIA METRO SAN MIGUEL,DEPARTAMENTO,00-01-1900,55.0,129,0,2022-12-16,por definir
198,199,EDIFICIO CHILOE 5373,"CHILOE 5373, SANTIAGO, REGION METROPOLITANA, CHILE",SAN MIGUEL,-33.503746,-70.6519902,INMOBILIARIA LOS BOSQUES S.A.,DEPARTAMENTO,42064,76.0,250,0,2022-12-16,por definir
199,200,ECO SOLAR,"SANTA ELENA 870, SANTIAGO, REGION METROPOLITANA, CHILE",SANTIAGO,-33.4528471,-70.6320078999999,INMOBILIARIA FUNDAMENTA,DEPARTAMENTO,42979,40.5,294,0,2022-12-16,por definir
200,201,CAMPANARIO,"SANTA TERESITA DE LOS ANDES 9150, SANTIAGO, REGION METROPOLITANA, CHILE",VITACURA,-33.3267161,-70.7468781,INMOBILIARIA VIZCAYA,DEPARTAMENTO,42064,315.0,48,0,2022-12-16,por definir
201,202,EDIFICIO SANTIAGO ORIENTE 2,"FRAY CAMILO HENRIQUEZ 684, SANTIAGO, REGION METROPOLITANA, CHILE",SANTIAGO,-33.4510824,-70.6332725,SUKSA GESTION INMOBILIARIA,DEPARTAMENTO,42156,58.0,218,0,2022-12-16,por definir
202,203,BR1701,"BREMEN 1701, SANTIAGO, REGION METROPOLITANA, CHILE",ÑUÑOA,-33.43889,-70.57887,IALTURA,DEPARTAMENTO,43800,75.0,44,0,2022-12-16,por definir
203,204,ABANICOS DE INDEPENDENCIA,"INDEPENDENCIA 1133, SANTIAGO, REGION METROPOLITANA, CHILE",INDEPENDENCIA,-33.4174590999999,-70.6562752999999,INMOBILIARIA PEWMA,DEPARTAMENTO,42064,42.5,207,0,2022-12-16,por definir
204,205,EDIFICIO SANTA ELENA 895,"SANTA ELENA 895, SANTIAGO, REGION METROPOLITANA, CHILE",SANTIAGO,-33.4533092,-70.632178,INMOBILIARIA SINERGIA S.A.,DEPARTAMENTO,42156,49.0,222,0,2022-12-16,por definir
205,206,EDIFICIO ALTO TAMARUGO,"EL TAMARUGO. ESQ LAS FRESAS, SANTIAGO, REGION METROPOLITANA, CHILE",VITACURA,-33.40018,-70.5857992999999,ACONCAGUA S.A.,DEPARTAMENTO,42064,178.5,23,0,2022-12-16,por definir
206,207,PARQUE DEL VALLE - EDIFICIO MAITEN,"PEDRO FONTOVA 7150, SANTIAGO, REGION METROPOLITANA, CHILE",HUECHURABA,-33.3561289,-70.6709848,INMOBILIARIA ALTOS DE HUECHURABA S.A.,DEPARTAMENTO,42186,80.5,64,0,2022-12-16,por definir
207,208,CONJUNTO VALLES DEL BOSQUE,"PRESIDENTE GABRIEL GONZALEZ VIDELA 911, SANTIAGO, REGION METROPOLITANA, CHILE",MAIPU,-33.5302504,-70.7805954,GALIZZO,CASA,42430,78.5,189,0,2022-12-16,por definir
208,209,CASAS SAN VICENTE,"SAN VICENTE DE PAUL 4428, SANTIAGO, REGION METROPOLITANA, CHILE",MACUL,-33.4959006,-70.5881943999999,RIOS LARRAIN LTDA,CASA,42370,80.0,31,0,2022-12-16,por definir
209,210,EDIFICIO PARQUE GARCIA DE LA HUERTA,"ARTURO PRAT 850, SANTIAGO, REGION METROPOLITANA, CHILE",SAN BERNARDO,-33.4439086,-70.7514961,INMOBILIARIA HCG,DEPARTAMENTO,42522,58.5,408,0,2022-12-16,por definir
210,211,PARQUE PORTEZUELO,"CARRETERA SAN MARTIN 1020, SANTIAGO, REGION METROPOLITANA, CHILE",COLINA,-33.432362,-70.6591284,CONSTRUCTORA CONVET,CASA,42064,69.0,253,0,2022-12-16,por definir
211,212,CONDOMINIO EL TRANQUE,"EL TRANQUE ESQ. JOSE ALCALDE DELANO, SANTIAGO, REGION METROPOLITANA, CHILE",LO BARNECHEA,-33.3612882,-70.5441392,SOCOVESA S.A.,CASA,42064,479.5,17,0,2022-12-16,por definir
212,213,CIUDAD MONTT,"MANUEL MONTT 2515, SANTIAGO, REGION METROPOLITANA, CHILE",ÑUÑOA,-33.4506169,-70.6133373999999,INMOBILIARIA MANUEL MONTT SPA,DEPARTAMENTO,44197,47.5,177,1,2022-12-16,por definir
213,214,PARQUE ROBLE,"CALLE EL ROBLE 12729, SANTIAGO, REGION METROPOLITANA, CHILE",LO BARNECHEA,-33.3631263,-70.5164532,SIENA INMOBILIARIA S.A.,DEPARTAMENTO,42339,90.5,164,0,2022-12-16,por definir
214,215,CONCEPTO DESIGN LA DEHESA,"ALBERT LE BLANC 1737, SANTIAGO, REGION METROPOLITANA, CHILE",LO BARNECHEA,-33.3565453,-70.5187356,INMOBILIARIA IMAGINA,DEPARTAMENTO,42064,141.0,45,0,2022-12-16,por definir
215,216,EDIFICIO LATADIA 4343,"LATADIA 4343, SANTIAGO, REGION METROPOLITANA, CHILE",LAS CONDES,-33.4289004,-70.5760174,INMOBILIARIA SAN DAMIAN S.A.,DEPARTAMENTO,42064,138.0,40,0,2022-12-16,por definir
216,217,EDIFICIO VICTOR RAE 5858,"VICTOR RAE 5858, SANTIAGO, REGION METROPOLITANA, CHILE",LAS CONDES,-33.4296217,-70.5660479,INMOBILIARIA SIP,DEPARTAMENTO,42064,139.0,46,0,2022-12-16,por definir
217,218,CONDOMINIO PARADOR DE FONTOVA,"PEDRO FONTOVA 8085, SANTIAGO, REGION METROPOLITANA, CHILE",HUECHURABA,-33.339325,-70.6675329999999,INMOBILIARIA SIP,CASA,42156,124.0,39,0,2022-12-16,por definir
218,219,CONDOMINIO QUILLAYES DE OTONAL,"CAMINO OTONAL 1569, SANTIAGO, REGION METROPOLITANA, CHILE",LAS CONDES,-33.4006042,-70.5200555999999,COLLINS INMOBILIARIA,CASA,42064,381.0,13,0,2022-12-16,por definir
219,220,CONDOMINIO TERRALTA CHAMISERO,"AV. CHAMISERO 16663, SANTIAGO, REGION METROPOLITANA, CHILE",COLINA,-33.3240533,-70.6440535,BESALCO INMOBILIARIA S.A.,CASA,42430,201.5,186,1,2022-12-16,por definir
220,221,CLORINDA WILSHAW 500,"CLORINDA WILSHAW 500, SANTIAGO, REGION METROPOLITANA, CHILE",ÑUÑOA,-33.4492283,-70.5729224,SSILVA GESTION INMOBILIARIA,DEPARTAMENTO,43922,81.0,70,0,2022-12-16,por definir
221,222,CONDOMINIO LAGUNA LOS PATOS,"CAMINO LA LAGUNA 15110, SANTIAGO, REGION METROPOLITANA, CHILE",LO BARNECHEA,-33.342455,-70.4959466999999,DEVELOP,CASA,42064,244.0,14,0,2022-12-16,por definir
222,223,EDIFICIO SAN DAMIAN,"SAN DAMIAN 091, SANTIAGO, REGION METROPOLITANA, CHILE",VITACURA,-33.3755688,-70.5261271,EXXACON DESARROLLOS INMOBILIARIOS,DEPARTAMENTO,42339,133.5,45,0,2022-12-16,por definir
223,224,EDIFICIO SANTIAGO CENTRAL,"MARIO KREUTZBERGER 1520, SANTIAGO, REGION METROPOLITANA, CHILE",SANTIAGO,-33.4360708,-70.6589821,ARMAS INMOBILIARIA,DEPARTAMENTO,42614,37.0,832,0,2022-12-16,por definir
224,225,EDIFICIO VALENZUELA CASTILLO,"VALENZUELA CASTILLO 1858, SANTIAGO, REGION METROPOLITANA, CHILE",PROVIDENCIA,-33.4336036,-70.6116964,SIENA INMOBILIARIA S.A.,DEPARTAMENTO,42156,86.5,60,0,2022-12-16,por definir
225,226,EDIFICIO LA CABAÑA,"LAS CONDES 12803, SANTIAGO, REGION METROPOLITANA, CHILE",LAS CONDES,-33.4130496,-70.5145939,INMOBILIARIALOS JARDINES DE SAN FRANCISCO DE ASIS S.A.,DEPARTAMENTO,42064,69.0,224,0,2022-12-16,por definir
226,227,EDIFICIO AVENIDA MANANTIAL,"CUARTA AVENIDA 1227, SANTIAGO, REGION METROPOLITANA, CHILE",SAN MIGUEL,-33.5066601,-70.6585590999999,INMOBILIARIA MANANTIAL LTDA.,DEPARTAMENTO,42156,85.0,152,0,2022-12-16,por definir
227,228,EDIFICIO DON ARTURO,"VICTOR RAE 4638, SANTIAGO, REGION METROPOLITANA, CHILE",LAS CONDES,-33.4301476,-70.5729267,INMOBILIARIA ERGON,DEPARTAMENTO,42156,117.5,36,0,2022-12-16,por definir
228,229,EDIFICIO EL ALCALDE,"ALCALDE PEDRO ALARCON 868, SANTIAGO, REGION METROPOLITANA, CHILE",SAN MIGUEL,-33.4873279,-70.6461700999999,VIVIENDAS 2000 LTDA.,DEPARTAMENTO,42064,56.0,124,0,2022-12-16,por definir
229,230,EDIFICIO SENSACION,"LORD COCHRANE 171, SANTIAGO, REGION METROPOLITANA, CHILE",SANTIAGO,-33.4482781,-70.655118,PAZ INMOBILIARIA,DEPARTAMENTO,42461,40.5,294,0,2022-12-16,por definir
230,231,LOMAS DE LO AGUIRRE BARRIO BELLAVISTA,"RUTA 68 KM.10, SANTIAGO, REGION METROPOLITANA, CHILE",PUDAHUEL,-33.4379347,-70.8185412,INMOBILIARIA SANTA ISABEL S.A.,CASA,42064,114.0,168,0,2022-12-16,por definir
231,232,JARDINES DE LAS VIZCACHAS - BARRIO CORDILLERA,"CAMINO SAN JOSE DE MAIPO 5879, SANTIAGO, REGION METROPOLITANA, CHILE",PUENTE ALTO,-33.5989987,-70.5201253,ACONCAGUA S.A.,CASA,42064,83.0,79,0,2022-12-16,por definir
232,233,PARQUE ALBANO,"ELIAS FERNANDEZ ALBANO 797, SANTIAGO, REGION METROPOLITANA, CHILE",LA CISTERNA,-33.525557,-70.6520020999999,GREVIA,DEPARTAMENTO,42095,64.0,110,0,2022-12-16,por definir
233,234,CONCEPTO EXCELLENCE,"PAULA JARA QUEMADA 189, SANTIAGO, REGION METROPOLITANA, CHILE",LA REINA,-33.4550511,-70.5684416,INMOBILIARIA IMAGINA,DEPARTAMENTO,42370,70.0,122,0,2022-12-16,por definir
234,235,JARDINES DE RIESCO II,"HERMANOS CABOT 7393, SANTIAGO, REGION METROPOLITANA, CHILE",LAS CONDES,-33.3949617,-70.5586114,INMOBILIARIA DUCOMA,DEPARTAMENTO,42156,113.0,110,0,2022-12-16,por definir
235,236,CASAS CONDIMINIO DEL SANTUARIO,"CAMINO DEL PAISAJE 6546, SANTIAGO, REGION METROPOLITANA, CHILE",LA FLORIDA,-33.5111055,-70.52864,INMOBILIARIA SINERGIA S.A.,CASA,00-01-1900,165.0,76,0,2022-12-16,por definir
236,237,EDIFICIO ADRIANA BOLLAND II,"MADAME BOLAND 99, SANTIAGO, REGION METROPOLITANA, CHILE",LA CISTERNA,-33.4488897,-70.6692655,INMOBILIARIA E INVERSIONES RPM S.A.,DEPARTAMENTO,42156,46.5,165,0,2022-12-16,por definir
237,238,CONDOMINIO CORDILLERA,"QUEBRADA DE MACUL 8600, SANTIAGO, REGION METROPOLITANA, CHILE",PEÑALOLEN,-33.5085244,-70.5450341,SEPCO,CASA,42186,111.0,56,0,2022-12-16,por definir
238,239,EDIFICIO VISTA HUECHURABA,"CAMINO DE CINTURA 1409, SANTIAGO, REGION METROPOLITANA, CHILE",HUECHURABA,-33.339084,-70.6687311,CONSTRUCTORA FRANCISCO LORCA,DEPARTAMENTO,42370,112.0,108,0,2022-12-16,por definir
239,240,CONDOMINIO FALDEOS DE CASA GRANDE,"ANTUPIREN 8951, SANTIAGO, REGION METROPOLITANA, CHILE",PEÑALOLEN,-33.4811,-70.54153,INMOBILIARIA CASA GRANDE,CASA,42064,140.0,70,0,2022-12-16,por definir
240,241,EDIFICIO LOOK,"ALMIRANTE LATORRE 608 CON GAY, SANTIAGO, REGION METROPOLITANA, CHILE",SANTIAGO,-33.4553584,-70.6640499,DEISA - INMOBILIRIA LAS PATAGUAS,DEPARTAMENTO,42339,63.5,160,0,2022-12-16,por definir
241,242,EDIFICIO VITAMAX,"PADRE HURTADO 146, SANTIAGO, REGION METROPOLITANA, CHILE",ESTACION CENTRAL,-33.4637088,-70.6993988,DEISA - INMOBILIRIA LAS PATAGUAS,DEPARTAMENTO,42339,45.0,182,0,2022-12-16,por definir
242,243,EDIFICIO INDEPENDENCIA PARK,"LEONOR CEPEDA 952, SANTIAGO, REGION METROPOLITANA, CHILE",INDEPENDENCIA,-33.4205759,-70.6597626,GRUPO RALEI,DEPARTAMENTO,43009,44.0,456,0,2022-12-16,por definir
243,244,EDIFICIO TRANCURA,"GENERAL LUDWIG CON MARTIN ALONSO PINZON, SANTIAGO, REGION METROPOLITANA, CHILE",LAS CONDES,-33.421168,-70.5749781,ALMAHUE INMOBILIARIA,DEPARTAMENTO,42248,116.5,84,0,2022-12-16,por definir
244,245,EDIFICIO LOS CASTAÑOS,"LOS CASTANOS 3455, SANTIAGO, REGION METROPOLITANA, CHILE",SAN MIGUEL,-33.4857615,-70.6547205999999,ALMAGRO S.A.,DEPARTAMENTO,42064,63.5,102,0,2022-12-16,por definir
245,246,CONDOMINIO GOYCOLEA 420,"GOYCOLEA 420, SANTIAGO, REGION METROPOLITANA, CHILE",LA CISTERNA,-33.5406276,-70.6602041,STITCHKIN GESTION INMOBILIARIA,DEPARTAMENTO,42064,51.0,196,0,2022-12-16,por definir
246,247,EDIFICIO SANTA VICTORIA,"SANTA VICTORIA 562 CON SAN ISIDRO, SANTIAGO, REGION METROPOLITANA, CHILE",SANTIAGO,-33.4489562,-70.6428837999999,DEISA - INMOBILIRIA LAS PATAGUAS,DEPARTAMENTO,42278,50.0,210,0,2022-12-16,por definir
247,248,TERRAZAS DE CHICUREO,"CHICUREO CON PASEO COLINA SUR, SANTIAGO, REGION METROPOLITANA, CHILE",COLINA,-33.2835558,-70.6274415,ACONCAGUA S.A.,CASA,42339,199.5,56,0,2022-12-16,por definir
248,249,CONDOMINIO VICUÑA MACKENNA PONIENTE - EDIFICIO GRAN PLAZA,"VICUNA MACKENNA 6837, SANTIAGO, REGION METROPOLITANA, CHILE",LA FLORIDA,-33.5170823,-70.6021288,SIP,DEPARTAMENTO,42552,55.0,226,0,2022-12-16,por definir
249,250,QUINCHAMALI DE LOS ANDES,"SAN JOSE DE LA SIERRA 1250, SANTIAGO, REGION METROPOLITANA, CHILE",LAS CONDES,-33.3783641,-70.4939318,INMOBILIARIA ARENA,DEPARTAMENTO,42156,238.5,30,0,2022-12-16,por definir
250,251,EDIFICIO EL RETIRO,"EL RETIRO 5001, SANTIAGO, REGION METROPOLITANA, CHILE",VITACURA,-33.3965962,-70.5843448999999,FORTALEZA,DEPARTAMENTO,42339,120.5,39,0,2022-12-16,por definir
251,252,EDIFICIO CENTRO ALAMEDA,"PADRE HURTADO 87, SANTIAGO, REGION METROPOLITANA, CHILE",ESTACION CENTRAL,-33.4629698,-70.6985291,PAZ INMOBILIARIA,DEPARTAMENTO,42401,39.0,530,0,2022-12-16,por definir
252,253,EDIFICIO AGUSTIN DEL CASTILLO 2800 - AC 2800,"AGUSTIN DEL CASTILLO 2800, SANTIAGO, REGION METROPOLITANA, CHILE",VITACURA,-33.3928087,-70.5955848999999,INMOBILIARIA AGUSTIN DEL CASTILLO,DEPARTAMENTO,42125,257.0,24,0,2022-12-16,por definir
253,254,EDIFICIO EVOLUCION II,"TARAPACA 870, SANTIAGO, REGION METROPOLITANA, CHILE",SANTIAGO,-33.4470425,-70.6484256999999,PAZ INMOBILIARIA,DEPARTAMENTO,42370,41.0,394,0,2022-12-16,por definir
254,255,CONDOMINIO OCTAVA AVENIDA,"OCTAVA AVENIDA 1563, SANTIAGO, REGION METROPOLITANA, CHILE",SAN MIGUEL,-33.5089485,-70.6654318,PILARES,DEPARTAMENTO,42156,52.0,207,0,2022-12-16,por definir
255,256,EDIFICIO MIRADOR DE RECOLETA,"DOMINICA 404, SANTIAGO, REGION METROPOLITANA, CHILE",RECOLETA,-33.4261879,-70.6435796,NARDIC,DEPARTAMENTO,42064,61.5,207,0,2022-12-16,por definir
256,257,EDIFICIO CERRO COLORADO 6036 - ETAPA I,"CERRO COLORADO 6036, SANTIAGO, REGION METROPOLITANA, CHILE",LAS CONDES,-33.4004972,-70.5714394,BERSA GESTION INMOBILIARIA,DEPARTAMENTO,42095,64.0,190,0,2022-12-16,por definir
257,258,EDIFICIO BRAGANZA,"BRAGANZA 8222, SANTIAGO, REGION METROPOLITANA, CHILE",LAS CONDES,-33.4086241,-70.5469013,SIMONETTI INMOBILIARIA,DEPARTAMENTO,42491,47.0,144,0,2022-12-16,por definir
258,259,EDIFICIO ANDRES DE LA VERA,"ANDRES DE LA VERA 5040 CON LAS HUALTATAS, SANTIAGO, REGION METROPOLITANA, CHILE",VITACURA,-33.3889452,-70.5564681,EXXACON DESARROLLOS INMOBILIARIOS,DEPARTAMENTO,42461,114.5,51,0,2022-12-16,por definir
259,260,EDIFICIO BILBAO 5550,"BILBAO 5550, SANTIAGO, REGION METROPOLITANA, CHILE",LAS CONDES,-33.4306882,-70.5675584999999,SIMONETTI INMOBILIARIA,DEPARTAMENTO,42217,132.0,38,0,2022-12-16,por definir
260,261,EDIFICIO AMUNDSEN,"AMUNDSEN 2165, SANTIAGO, REGION METROPOLITANA, CHILE",PROVIDENCIA,-33.442179,-70.60392,INCAEL,DEPARTAMENTO,42125,77.0,60,0,2022-12-16,por definir
261,262,EDIFICIO DESIGN VITACURA,"LOS GOMEROS 1535, SANTIAGO, REGION METROPOLITANA, CHILE",VITACURA,-33.3958194,-70.5786487,IMAGINA INMOBILIARIA,DEPARTAMENTO,42370,118.5,30,0,2022-12-16,por definir
262,263,EDIFICIO LAS DALIAS - PLAZA LAS LILAS,"JORGE MATTE CON LAS DALIAS, SANTIAGO, REGION METROPOLITANA, CHILE",PROVIDENCIA,-33.4296437,-70.5938003,BESALCO INMOBILIARIA S.A.,DEPARTAMENTO,42064,98.5,35,0,2022-12-16,por definir
263,264,EDIFICIO PEDRO LAUTARO FERRER,"PEDRO LAUTARO FERRER 2928 ( VTAS. LOS LEONES 2177), SANTIAGO, REGION METROPOLITANA, CHILE",PROVIDENCIA,-33.4447213,-70.6007068,RVC INGENIERIA Y CONSTRUCCION,DEPARTAMENTO,42064,84.0,48,0,2022-12-16,por definir
264,265,CUMBRES DE ALTO MACUL,"ALTO MACUL ESQUINA LAS ARAUCARIAS ( VTAS. QUEBRADA DE MACUL 8600), SANTIAGO, REGION METROPOLITANA, CHILE",LA FLORIDA,-33.5113288,-70.5286703,SEPCO,CASA,42339,115.0,133,0,2022-12-16,por definir
265,266,CASAS LOMA LA CRUZ - EDIFICIO AGUA PIEDRA,"CAMINO DEL MONASTERIO CON LOMA LA CRUZ, SANTIAGO, REGION METROPOLITANA, CHILE",LO BARNECHEA,-33.3348848,-70.5554995,WOOD,CASA,42278,316.5,29,0,2022-12-16,por definir
266,267,BARRIO OESTE MAIPU IV,"4 PONIENTE 1629, SANTIAGO, REGION METROPOLITANA, CHILE",MAIPU,-33.5511784,-70.7625195,SIP,CASA,42064,72.0,46,1,2022-12-16,por definir
267,268,CONDOMINIO FRAY MONTALVA 776,"FRAY MONTALVA 776, SANTIAGO, REGION METROPOLITANA, CHILE",LAS CONDES,-33.376837,-70.506402,GRAN MUNDO,CASA,42064,286.0,9,0,2022-12-16,por definir
268,269,CONDOMINIO QUINTA DEL PARQUE,"NICOLAS PALACIOS 1641, SANTIAGO, REGION METROPOLITANA, CHILE",QUINTA NORMAL,-33.4265324,-70.6848148999999,MAESTRA,DEPARTAMENTO,42064,49.0,512,0,2022-12-16,por definir
269,270,CONDOMINIO AIRES NUEVOS,"CRUCHAGA MONTT 788, SANTIAGO, REGION METROPOLITANA, CHILE",QUINTA NORMAL,-33.4427018,-70.6949324,MAESTRA,DEPARTAMENTO,42339,45.0,398,0,2022-12-16,por definir
270,271,CONDOMINIO SAN IGNACIO II,"RAMON VERGARA 99, SANTIAGO, REGION METROPOLITANA, CHILE",QUILICURA,-33.3635499,-70.72299,VIVIENDAS 2000 LTDA.,DEPARTAMENTO,42064,54.5,161,0,2022-12-16,por definir
271,272,PARQUE LAS ENCINAS III,"EL TAIHUEN 12501, SANTIAGO, REGION METROPOLITANA, CHILE",LO BARNECHEA,-33.3657711,-70.5192421,ALMAGRO S.A.,DEPARTAMENTO,42186,146.0,32,0,2022-12-16,por definir
272,273,CONDOMINIO LOS NARANJOS DE MAIPU,"EL ROSAL 6032, SANTIAGO, REGION METROPOLITANA, CHILE",MAIPU,-33.3702925,-70.64953,HCG,CASA,42156,98.5,150,0,2022-12-16,por definir
273,274,PORTAL DEL VALLE V,"TOBALABA 1050, SANTIAGO, REGION METROPOLITANA, CHILE",PUENTE ALTO,-33.5911667,-70.5429262,ESEPE INMOBILIARIA,CASA,42064,109.0,67,0,2022-12-16,por definir
274,275,CONDOMINIO EL TRANQUE 10400,"EL TRANQUE CON JOSE DELANO, SANTIAGO, REGION METROPOLITANA, CHILE",LO BARNECHEA,-33.3612882,-70.5441392,ALMAGRO S.A.,DEPARTAMENTO,42125,326.5,18,0,2022-12-16,por definir
275,276,REMANSO DE LAS CONDES - DEPARTAMENTOS,"FRANCISCO BULNES CORREA, SANTIAGO, REGION METROPOLITANA, CHILE",LAS CONDES,-33.4079141,-70.5148919,DICAL DESARROLLO INMOBILIARIO,DEPARTAMENTO,42217,140.0,94,0,2022-12-16,por definir
276,277,CO 1067,"COVENTRY 1067, SANTIAGO, REGION METROPOLITANA, CHILE",ÑUÑOA,-33.4450371,-70.5810135999999,INMOBILIARIA ALTURA,DEPARTAMENTO,44013,81.5,50,1,2022-12-16,por definir
277,278,PLAZA DE ASIS,"LAS CONDES 12555, SANTIAGO, REGION METROPOLITANA, CHILE",LAS CONDES,-33.4605072,-70.7325805,INVERSIERRA SA,DEPARTAMENTO,42339,83.5,180,0,2022-12-16,por definir
278,279,EDIFICIO GUSTAVO V,"GUSTAVO V 160, SANTIAGO, REGION METROPOLITANA, CHILE",LAS CONDES,-33.4061275,-70.5628617,MOLINA MOREL,DEPARTAMENTO,42125,128.0,68,0,2022-12-16,por definir
279,280,ESPACIO LO FONTECILLA,"LO FONTECILLA INTERIOR 269, SANTIAGO, REGION METROPOLITANA, CHILE",LAS CONDES,-33.383182,-70.531128,ARMAS INMOBILIARIA,DEPARTAMENTO,42856,52.5,189,0,2022-12-16,por definir
280,281,ALTOS DE ASIS,"SAN FRANCISCO DE ASIS 1800, SANTIAGO, REGION METROPOLITANA, CHILE",LAS CONDES,-33.388357,-70.5008819999999,ENACO S.A.,DEPARTAMENTO,42339,88.5,114,0,2022-12-16,por definir
281,282,EDIFICIO HACIENDA CAPITAL,"HIPODROMO CHILE 1608, SANTIAGO, REGION METROPOLITANA, CHILE",INDEPENDENCIA,-33.4070964,-70.6625122,EUROINMOBILARIA S.A.,DEPARTAMENTO,42064,42.5,249,0,2022-12-16,por definir
282,283,CONJUNTO WALKER MARTINEZ - EDIFICIO BONAVISTA,"WALKER MARTINEZ 3342, SANTIAGO, REGION METROPOLITANA, CHILE",LA FLORIDA,-33.5220406,-70.5604472999999,TARRAGONA,DEPARTAMENTO,42064,57.5,80,0,2022-12-16,por definir
283,284,EDIFICIO CAPITAL II,"ZENTENO 1474, SANTIAGO, REGION METROPOLITANA, CHILE",SANTIAGO,-33.4655209,-70.6498519,SUKSA GESTION INMOBILIARIA,DEPARTAMENTO,42248,35.5,507,0,2022-12-16,por definir
284,285,SINGULAR CHAMISERO,"CHAMISERO 5900, SANTIAGO, REGION METROPOLITANA, CHILE",COLINA,-33.3097895,-70.6608759,SOCOVESA S.A.,CASA,42064,183.5,121,0,2022-12-16,por definir
285,286,MANUEL MAGALLANES,"PADRE HURTADO CON BAQUEDANO, SANTIAGO, REGION METROPOLITANA, CHILE",SAN BERNARDO,-33.6077106,-70.6832405999999,CONAVICOOP,CASA,42430,50.0,319,0,2022-12-16,por definir
286,287,EDIFICIO SIERRA PLAZA II,"LAS CONDES 13635, SANTIAGO, REGION METROPOLITANA, CHILE",LAS CONDES,-33.4605072,-70.7325805,ABSAL,DEPARTAMENTO,42186,59.5,210,0,2022-12-16,por definir
287,288,CUMBRE SAN DAMIAN VII,"FRANCISCO DE ASIS 2140, SANTIAGO, REGION METROPOLITANA, CHILE",LAS CONDES,-33.4734841,-70.6435793,ACONCAGUA S.A.,CASA,42064,274.0,33,0,2022-12-16,por definir
288,289,CONDOMINIO LOS REYES DE HUECHURABA,"PEDRO FONTOVA 7768, SANTIAGO, REGION METROPOLITANA, CHILE",HUECHURABA,-33.347555,-70.6709152999999,INMOBILIARIA QUINCHED,DEPARTAMENTO,42064,123.0,76,0,2022-12-16,por definir
289,290,SANTIAGO VINTAGE,"VERGARA 500, SANTIAGO, REGION METROPOLITANA, CHILE",SANTIAGO,-33.4533853,-70.6614647,URMENETA GESTION INMOBILIARIA,DEPARTAMENTO,42614,47.0,219,0,2022-12-16,por definir
290,291,EDIFICIO NUEVA GALVARINO GALLARDO,"GALVARINO GALLARDO 1750, SANTIAGO, REGION METROPOLITANA, CHILE",PROVIDENCIA,-33.43047,-70.61355,CORDOVA,DEPARTAMENTO,42064,94.0,44,0,2022-12-16,por definir
291,292,EDIFICIO INICIO,"SAN NICOLAS 1372, SANTIAGO, REGION METROPOLITANA, CHILE",SAN MIGUEL,-33.4978441,-70.6596464,ARMAS INMOBILIARIA,DEPARTAMENTO,42339,40.5,88,0,2022-12-16,por definir
292,293,EDIFICIO PADERENSKY,"PADEREWSKI 4950, SANTIAGO, REGION METROPOLITANA, CHILE",VITACURA,-33.39827,-70.5841727999999,ALMAHUE INMOBILIARIA,DEPARTAMENTO,42064,116.5,38,0,2022-12-16,por definir
293,294,EDIFICIO SANTA ROSA PEWMA,"SANTA ROSA 2668, SANTIAGO, REGION METROPOLITANA, CHILE",SAN JOAQUIN,-33.4802281,-70.6414420999999,PEWMA INMOBILIARIA,DEPARTAMENTO,42064,44.0,115,0,2022-12-16,por definir
294,295,CONDOMINIO COSTA NUEVA,"COSTA RICA 9250, SANTIAGO, REGION METROPOLITANA, CHILE",LA FLORIDA,-33.537035,-70.5773653,INMOBILIRIA CIUDAD NUEVA,CASA,42064,93.0,8,0,2022-12-16,por definir
295,296,CONJUNTO HABITACIONAL LOS GUINDOS,"IGNACIO CARRERA PINTO 1100, SANTIAGO, REGION METROPOLITANA, CHILE",PADRE HURTADO,-33.4663279,-70.5940748,PACAL GRUPO INMOBILIARIO,CASA,42156,75.0,68,0,2022-12-16,por definir
296,297,EDIFICIO EL LLANO PEWMA,"BRIGADIER DE LA CRUZ 980, SANTIAGO, REGION METROPOLITANA, CHILE",SAN MIGUEL,-33.4919267,-70.6496088999999,PEWMA INMOBILIARIA,DEPARTAMENTO,42339,56.0,128,0,2022-12-16,por definir
297,298,JARDINES DE MAIPU - LAS AMAPOLAS,"AMERICO VESPUCIO 1264, SANTIAGO, REGION METROPOLITANA, CHILE",MAIPU,-33.3835276,-70.7577009,-,DEPARTAMENTO,42339,37.5,220,0,2022-12-16,por definir
298,299,VALLE DE ASIS,"PLAZA 581 - SAN CARLOS APOQUINDO 580, SANTIAGO, REGION METROPOLITANA, CHILE",LAS CONDES,-33.3879071,-70.5011739999999,ENACO S.A.,CASA,42339,139.0,102,0,2022-12-16,por definir
299,300,PORTAL SANTA MARIA,"SANTA MARIA 14700, SANTIAGO, REGION METROPOLITANA, CHILE",COLINA,-33.374616,-70.5444433999999,IDEA GRUPO INMOBILIARIO,CASA,42217,183.0,55,0,2022-12-16,por definir
300,301,EDIFCIO ESPOZ 4300,"ESPOZ 4300, SANTIAGO, REGION METROPOLITANA, CHILE",VITACURA,-33.39703,-70.58982,ALMAGRO S.A.,DEPARTAMENTO,42248,277.5,24,0,2022-12-16,por definir
301,302,JARDINES DE SAN MIGUEL,"CONCEPCION S/N, SANTIAGO, REGION METROPOLITANA, CHILE",COLINA,-33.5232531,-70.6539658,INMOBILIARIA VALLE BLANCO,CASA,42186,76.0,139,0,2022-12-16,por definir
302,303,EDIFICIO ALAMEDA CENTRAL,"CORONEL GODOY 0128, SANTIAGO, REGION METROPOLITANA, CHILE",ESTACION CENTRAL,-33.4528215,-70.6942366999999,HABITE,DEPARTAMENTO,42339,31.5,385,0,2022-12-16,por definir
303,304,EDIFICIO CITY,"AMERICO VESPUCIO 2155, SANTIAGO, REGION METROPOLITANA, CHILE",MAIPU,-33.4757913,-70.5784343,AVELLANEDA,DEPARTAMENTO,42339,55.5,162,0,2022-12-16,por definir
304,305,EDIFICIO CARRERA,"JOSE MIGUEL CARRERA 298, SANTIAGO, REGION METROPOLITANA, CHILE",SANTIAGO,-33.4510862,-70.6631189,ALMAGRO S.A.,DEPARTAMENTO,42491,44.0,148,0,2022-12-16,por definir
305,306,CONCEPTO BREMEN,"BREMEN 485, SANTIAGO, REGION METROPOLITANA, CHILE",ÑUÑOA,-33.450225,-70.5784554,URMENETA GESTION INMOBILIARIA,DEPARTAMENTO,42887,78.0,42,0,2022-12-16,por definir
306,307,CONCEPTO CIRCLE NUEVA EGAÑA,"HANNOVER 5511, SANTIAGO, REGION METROPOLITANA, CHILE",ÑUÑOA,-33.4518574,-70.5725394999999,IMAGINA INMOBILIARIA,DEPARTAMENTO,43800,68.0,139,0,2022-12-16,por definir
307,308,EDIFICIO CONCEPTO HOME,"BELLO HORIZONTE 1140, SANTIAGO, REGION METROPOLITANA, CHILE",LAS CONDES,-33.418089,-70.5619578,IMAGINA INMOBILIARIA,DEPARTAMENTO,42644,110.5,80,0,2022-12-16,por definir
308,309,EDIFICIO LINEA II,"RAFAEL SANZIO CON LEONARDO DA VINCI, SANTIAGO, REGION METROPOLITANA, CHILE",LAS CONDES,-33.4032841,-70.5545784999999,AVELLANEDA,DEPARTAMENTO,42644,67.5,131,0,2022-12-16,por definir
309,310,ALTOS DEL LLANO,"LLANO SUBERCASEAUX CON FERNANDO LAZCANO, SANTIAGO, REGION METROPOLITANA, CHILE",SAN MIGUEL,-33.4842583,-70.6502039,ICAFAL,DEPARTAMENTO,42522,60.0,154,0,2022-12-16,por definir
310,311,EDIFICIO FLORENCIA,"FLORENCIA 1199, SANTIAGO, REGION METROPOLITANA, CHILE",SAN MIGUEL,-33.4902149,-70.6533599999999,ACTUAL GRUPO INMOBILIARIO,DEPARTAMENTO,42339,66.5,129,0,2022-12-16,por definir
311,312,EDIFICIO SIXTINA,"RADAL 828, SANTIAGO, REGION METROPOLITANA, CHILE",QUINTA NORMAL,-33.4437944,-70.7028843,INMOBILIARIA PERSEVERANCIA,DEPARTAMENTO,42125,47.5,237,0,2022-12-16,por definir
312,313,EDIFICIO PLAZA YUNGAY,"ROSAS 2599, SANTIAGO, REGION METROPOLITANA, CHILE",SANTIAGO,-33.4366689,-70.6726577,RUPANCO GESTION INMOBILIARIA,DEPARTAMENTO,42064,53.5,92,0,2022-12-16,por definir
313,314,EDIFICIO NUEVA SANTA ELENA,"SANTA ELENA 1655, SANTIAGO, REGION METROPOLITANA, CHILE",SANTIAGO,-33.4656807,-70.6286619,EUROINMOBILARIA S.A.,DEPARTAMENTO,42430,42.5,395,0,2022-12-16,por definir
314,315,ALTO LAS PALMAS,"SAN NICOLAS 1250, SANTIAGO, REGION METROPOLITANA, CHILE",SAN MIGUEL,-33.4986629,-70.6574159,PROYECTA INMOBILIARIA,DEPARTAMENTO,42156,52.5,136,0,2022-12-16,por definir
315,316,EDIFICIO LOS CAPITANES,"LOS CAPITANES 1400, SANTIAGO, REGION METROPOLITANA, CHILE",PROVIDENCIA,-33.4442505,-70.6131747,ENACO S.A.,DEPARTAMENTO,42309,78.0,78,0,2022-12-16,por definir
316,317,EDIFICIO NUEVA INGLATERRA,"INGLATERRA 1140 ( VTAS INDEPENDENCIA 733), SANTIAGO, REGION METROPOLITANA, CHILE",INDEPENDENCIA,-33.4124663,-70.6550462,SUKSA GESTION INMOBILIARIA,DEPARTAMENTO,42339,38.0,304,0,2022-12-16,por definir
317,318,EDIFICIO LORD COCHRANE PLAZA,"LORD COCHRANE 387, SANTIAGO, REGION METROPOLITANA, CHILE",SANTIAGO,-33.4507979,-70.6547755,ABSAL,DEPARTAMENTO,42339,48.0,323,0,2022-12-16,por definir
318,319,CONDOMINIO LOS PORTONES - VISTA VALLE - ALTO MACUL,"CAMINO DEL PAISAJE 6546, SANTIAGO, REGION METROPOLITANA, CHILE",LA FLORIDA,-33.5111055,-70.52864,-,CASA,42522,118.5,108,0,2022-12-16,por definir
319,320,CONDOMINIO DOÑA JOSEFINA,"ALICAHUE 18408, SANTIAGO, REGION METROPOLITANA, CHILE",SAN BERNARDO,-33.6323833,-70.6756837,-,CASA,42064,77.0,20,0,2022-12-16,por definir
320,321,ECOURBE SANTA ELENA - BARRIO LOS ALMENDROS,"FUNDO SANTA ELENA, SANTIAGO, REGION METROPOLITANA, CHILE",COLINA,-33.4645114,-70.6280689,FERNANDEZ WOOD S.A.,CASA,42064,131.0,123,0,2022-12-16,por definir
321,322,ECOURBE SANTA ELENA - BARRIO LOS NOGALES,"FUNDO SANTA ELENA, SANTIAGO, REGION METROPOLITANA, CHILE",COLINA,-33.4645114,-70.6280689,IMSA - AD PORTAS,CASA,42430,127.5,161,0,2022-12-16,por definir
322,323,ECOURBE SANTA ELENA - BARRIO QUILAY,"FUNDO SANTA ELENA, SANTIAGO, REGION METROPOLITANA, CHILE",COLINA,-33.4645114,-70.6280689,SIENA INMOBILIARIA S.A.,CASA,42339,157.5,42,0,2022-12-16,por definir
323,324,ANDES DE VITACURA NORTE,"EL TAMARUGO 1490, SANTIAGO, REGION METROPOLITANA, CHILE",VITACURA,-33.4007002,-70.585979,ANDES GESTION INMOBILIARIA,DEPARTAMENTO,42064,85.0,66,0,2022-12-16,por definir
324,325,CONDOMINIO TERRANOVA IV,"LAS PERDICES 1303, SANTIAGO, REGION METROPOLITANA, CHILE",LA REINA,-33.4418156,-70.5332332,INMOBILIARIA CERRO BAYO,DEPARTAMENTO,42125,133.0,16,0,2022-12-16,por definir
325,326,BOSQUES DE LA PIRAMIDE - EDIFICIO LAS PALMAS,"RINCONADA EL SALTO 879, SANTIAGO, REGION METROPOLITANA, CHILE",HUECHURABA,-33.3841148,-70.6114784,ACTUAL GRUPO INMOBILIARIO,DEPARTAMENTO,42339,107.0,90,0,2022-12-16,por definir
326,327,PORTAL DEL VALLE VI,"TOBALABA 1050, SANTIAGO, REGION METROPOLITANA, CHILE",PUENTE ALTO,-33.5911667,-70.5429262,ESEPE INMOBILIARIA,CASA,42064,100.5,45,0,2022-12-16,por definir
327,328,CONCEPTO ELEMENT,"SIMON BOLIVAR 5586, SANTIAGO, REGION METROPOLITANA, CHILE",ÑUÑOA,-33.4479441,-70.5729411,INMOBILIARIA IMAGINA,DEPARTAMENTO,42248,85.5,64,0,2022-12-16,por definir
328,329,LOS DOMINICOS PLAZA,"CIRCULO APOLO 8721, SANTIAGO, REGION METROPOLITANA, CHILE",LAS CONDES,-33.4098984,-70.5434168,EMMOREL,DEPARTAMENTO,42583,92.0,125,0,2022-12-16,por definir
329,330,CONDOMINIO ESPACIO EL LLANO II,"MARIA AUXILIADORA CON CHILOE 3601, SANTIAGO, REGION METROPOLITANA, CHILE",SAN MIGUEL,-33.4878861,-70.6474317999999,BESALCO INMOBILIARIA S.A.,DEPARTAMENTO,42064,42.5,130,0,2022-12-16,por definir
330,331,SOL DE ABRIL,"CAMINO A RINCONADA 2700, SANTIAGO, REGION METROPOLITANA, CHILE",MAIPU,-33.505918,-70.7918569,METROPOLITANA,CASA,42217,54.0,100,0,2022-12-16,por definir
331,332,ALTOS DE SAN MARTIN III,"PADRE HURTADO ESQUINA SUR, SANTIAGO, REGION METROPOLITANA, CHILE",MAIPU,-33.521306,-70.7686481,CONSTRUCTORA POCURO,DEPARTAMENTO,42339,58.0,96,0,2022-12-16,por definir
332,333,CONDOMINIO CASANOVA,"ALVARO CASANOVA 97, SANTIAGO, REGION METROPOLITANA, CHILE",LA REINA,-33.452945,-70.5199045,INMOBILIARIA LA REINA ALTA SPA,CASA,42064,300.0,8,0,2022-12-16,por definir
333,334,DEPARTAMENTOS CLAUDIO ARRAU,"CLAUDIO ARRAU 8397, SANTIAGO, REGION METROPOLITANA, CHILE",PUDAHUEL,-33.4520146,-70.7491381,RIOS LARRAIN LTDA,DEPARTAMENTO,42064,57.5,200,0,2022-12-16,por definir
334,335,EDIFICIO DON PEDRO,"ALONSO DE ERCILLA 8486, SANTIAGO, REGION METROPOLITANA, CHILE",LA FLORIDA,-33.530379,-70.584453,CONSTRUCTORA LEIVA Y LEDEA,DEPARTAMENTO,42064,76.0,39,0,2022-12-16,por definir
335,336,EDIFICIO CUETO,"CUETO 767, SANTIAGO, REGION METROPOLITANA, CHILE",SANTIAGO,-33.435665,-70.6727918999999,CONSTRUCTORA BIO BIO,DEPARTAMENTO,42064,45.5,30,0,2022-12-16,por definir
336,337,CONDOMINIO LOS ABEDULES,"AV. DEL VALLE 10730, SANTIAGO, REGION METROPOLITANA, CHILE",COLINA,-33.3025928,-70.6905244,INMOBILIARIA CASTRO Y TAGLE,CASA,42064,121.0,34,0,2022-12-16,por definir
337,338,EDIFICIO SAN NICOLAS NORTE,"SAN NICOLAS 1033, SANTIAGO, REGION METROPOLITANA, CHILE",SAN MIGUEL,-33.4996239,-70.6513748,INGEVEC,DEPARTAMENTO,42248,61.5,210,0,2022-12-16,por definir
338,339,CONCEPTO FAMILY LOOK,"SIMON BOLIVAR 2550, SANTIAGO, REGION METROPOLITANA, CHILE",ÑUÑOA,-33.4501009,-70.6044613999999,IMAGINA INMOBILIARIA,DEPARTAMENTO,43435,74.0,90,0,2022-12-16,por definir
339,340,CONCEPTO LIFE,"IRARRAZAVAL 3755 ESQUINA LAS TALAVERAS, SANTIAGO, REGION METROPOLITANA, CHILE",ÑUÑOA,-33.455461,-70.591126,IMAGINA INMOBILIARIA,DEPARTAMENTO,42705,67.5,186,0,2022-12-16,por definir
340,341,EDIFICIO BLANCO 1739,"BLANCO ENCALADA 1739, SANTIAGO, REGION METROPOLITANA, CHILE",SANTIAGO,-33.4564018,-70.6584039999999,INVERISA GESTION INMOBILIARIA,DEPARTAMENTO,42339,44.5,261,0,2022-12-16,por definir
341,342,CONCEPTO MAGIC,"IRARRAZAVAL 2220, SANTIAGO, REGION METROPOLITANA, CHILE",ÑUÑOA,-33.4535181,-70.6079695999999,IMAGINA INMOBILIARIA,DEPARTAMENTO,44166,53.0,210,0,2022-12-16,por definir
342,343,AGUAS CLARAS,"GUAY GUAY - CHICUREO, SANTIAGO, REGION METROPOLITANA, CHILE",COLINA,-33.2677445,-70.6409554,INMOBILIARIA MANQUEHUE LTDA.,CASA,42248,152.5,108,0,2022-12-16,por definir
343,344,EDIFICIO PRADOS PARK PROVI,"DIAGONAL ORIENTE 1620 - 1630, SANTIAGO, REGION METROPOLITANA, CHILE",PROVIDENCIA,-33.4457967,-70.6100708,INMOBILIARIA GP DOS LTDA,DEPARTAMENTO,42064,94.5,34,0,2022-12-16,por definir
344,345,EDIFICIO LLANORIENTE - EDIFICIO MARIA AUXILIADORA,"MARIA AUXILIADORA 860, SANTIAGO, REGION METROPOLITANA, CHILE",SAN MIGUEL,-33.4887305,-70.6463792,INMOBILIARIA MAKRO,DEPARTAMENTO,42309,42.5,147,0,2022-12-16,por definir
345,346,EDIFICIO LAS HUALTATAS,"LAS HUALTATAS 5099, SANTIAGO, REGION METROPOLITANA, CHILE",VITACURA,-33.3999538,-70.5821292,GRUPO MAGAL,DEPARTAMENTO,42522,121.0,44,0,2022-12-16,por definir
346,347,EDIFICIO VISTA SAN DAMIAN,"LAS HUALTATAS 11505, SANTIAGO, REGION METROPOLITANA, CHILE",VITACURA,-33.3743809,-70.5262377,FORTALEZA,DEPARTAMENTO,42339,111.5,60,0,2022-12-16,por definir
347,348,CONDOMINIO LOS ALERCES DE MAIPU,"THIARE S/N ( SALA VTA EL ROSAL 6032), SANTIAGO, REGION METROPOLITANA, CHILE",MAIPU,-33.4488897,-70.6692655,HCG,CASA,42339,82.0,120,0,2022-12-16,por definir
348,349,CONCEPTO MOST,"MONTENEGRO 2124, SANTIAGO, REGION METROPOLITANA, CHILE",ÑUÑOA,-33.4374912,-70.5823846999999,IMAGINA INMOBILIARIA,DEPARTAMENTO,43070,73.0,62,0,2022-12-16,por definir
349,350,EDIFICIO ALCALDE PEDRO ALARCON 887,"ALCALDE PEDRO ALARCON 887, SANTIAGO, REGION METROPOLITANA, CHILE",SAN MIGUEL,-33.4864314,-70.646356,TERRA FIRME,DEPARTAMENTO,42156,72.0,178,0,2022-12-16,por definir
350,351,VISTA HUINGANAL,"CAMINO EL ATARDECER 1469, SANTIAGO, REGION METROPOLITANA, CHILE",LO BARNECHEA,-33.3248141,-70.5345214,MARDONES E HIJOS,DEPARTAMENTO,42095,147.0,24,0,2022-12-16,por definir
351,352,ESPACIO 3 - EDIFICIO PARQUE,"VICUÑA MACKENNA 4927, SANTIAGO, REGION METROPOLITANA, CHILE",SAN JOAQUIN,-33.5009301,-70.616242,INMOBILIARIA NUEVA COSTANERA,DEPARTAMENTO,42095,49.0,285,0,2022-12-16,por definir
352,353,CONCEPTO MOVEMENT,"CAPITAN ORELLA 2427, SANTIAGO, REGION METROPOLITANA, CHILE",ÑUÑOA,-33.4530051,-70.606347,IMAGINA INMOBILIARIA,DEPARTAMENTO,43435,69.0,148,0,2022-12-16,por definir
353,354,EDIFICIO LA ORACION 43,"LA ORACION 43, SANTIAGO, REGION METROPOLITANA, CHILE",LAS CONDES,-33.4017021,-70.5561424999999,INMOBILIARIA PRADO VERDE,DEPARTAMENTO,42064,49.0,88,0,2022-12-16,por definir
354,355,EDIFICIO LA LLAVERIA,"PRESIDENTE KENNEDY 9540, SANTIAGO, REGION METROPOLITANA, CHILE",VITACURA,-33.3868158,-70.5418708,INMOBILIARIA CREDEA,DEPARTAMENTO,42339,103.0,59,0,2022-12-16,por definir
355,356,VISTA LA DEHESA,"CAMINO CERRO PAN DE AZUCAR 10435, SANTIAGO, REGION METROPOLITANA, CHILE",LO BARNECHEA,-33.357834,-70.5438889,BERSA GESTION INMOBILIARIA,DEPARTAMENTO,42186,230.5,32,0,2022-12-16,por definir
356,357,EDIFICIO JORGE MATTE,"JORGE MATTE 2045, SANTIAGO, REGION METROPOLITANA, CHILE",PROVIDENCIA,-33.434862,-70.5920987,ACONCAGUA S.A.,DEPARTAMENTO,42401,127.0,24,0,2022-12-16,por definir
357,358,EDIFICIO JORGE MATTE 1975,"JORGE MATTE 1975, SANTIAGO, REGION METROPOLITANA, CHILE",PROVIDENCIA,-33.4342923,-70.592261,STITCHKIN GESTION INMOBILIARIA,DEPARTAMENTO,42278,109.5,30,0,2022-12-16,por definir
358,359,EDIFICIO LYON 1441,"AUSTRIA 2170 CON RICARDO LYON 1441, SANTIAGO, REGION METROPOLITANA, CHILE",PROVIDENCIA,-33.4345794,-70.6056461,ALMAGRO S.A.,DEPARTAMENTO,42522,83.0,75,0,2022-12-16,por definir
359,360,JARDINES DE GORBEA II,"GORBEA 2550, SANTIAGO, REGION METROPOLITANA, CHILE",SANTIAGO,-33.4545782,-70.6713566,INMOBILIARIA CORDOBA,DEPARTAMENTO,42248,59.0,194,0,2022-12-16,por definir
360,361,JARDINES DE CHICUREO,"PADRE SERGIO CORREA 12000, SANTIAGO, REGION METROPOLITANA, CHILE",COLINA,-33.2541051,-70.6298541,SOCOVESA S.A.,CASA,42125,161.5,54,0,2022-12-16,por definir
361,362,CASAS DE LA LAGUNA,"CAMINO LA LAGUNA 14740, SANTIAGO, REGION METROPOLITANA, CHILE",LO BARNECHEA,-33.3435685,-70.499226,PROPIEDADES MARDONES,CASA,42614,269.0,28,0,2022-12-16,por definir
362,363,EDIFICIO ALVARADO 5577,"CARLOS ALVARADO 5577, SANTIAGO, REGION METROPOLITANA, CHILE",LAS CONDES,-33.4294719,-70.5677212,PEBAL,DEPARTAMENTO,42064,136.5,31,0,2022-12-16,por definir
363,364,PARQUE SAN DAMIAN - EDIFICIO MAGNOLIO,"LA HUALTATAS 11735, SANTIAGO, REGION METROPOLITANA, CHILE",VITACURA,-33.3741884,-70.525932,MPC,DEPARTAMENTO,42430,95.5,84,0,2022-12-16,por definir
364,365,PARQUE SAN DAMIAN - EDIFICIO ALERCE,"LA HUALTATAS 11735, SANTIAGO, REGION METROPOLITANA, CHILE",VITACURA,-33.3741884,-70.525932,MPC,DEPARTAMENTO,42430,144.0,124,0,2022-12-16,por definir
365,366,SAN DAMIAN DE VITACURA,"LA HUALTATAS 11735, SANTIAGO, REGION METROPOLITANA, CHILE",VITACURA,-33.3741884,-70.525932,MPC,DEPARTAMENTO,42491,243.0,62,0,2022-12-16,por definir
366,367,PAJARITOS DEL PARQUE V,"PAJARITOS 7179, SANTIAGO, REGION METROPOLITANA, CHILE",MAIPU,-33.4701552,-70.7355018,INCONAC,DEPARTAMENTO,42826,60.5,84,0,2022-12-16,por definir
367,368,EDIFICIO HERMANOS CABOT 7418,"HERMANOS CABOT 7418, SANTIAGO, REGION METROPOLITANA, CHILE",LAS CONDES,-33.39421,-70.55825,INMOBILIARIA QUECALL,DEPARTAMENTO,42278,140.5,33,0,2022-12-16,por definir
368,369,BORDE ANDINO ECOURBE SANTA ELENA,"FUNDO SANTA ELENA, SANTIAGO, REGION METROPOLITANA, CHILE",COLINA,-33.4645114,-70.6280689,FERNANDEZ WOOD S.A.,CASA,42248,135.0,101,0,2022-12-16,por definir
369,370,EDIFICIO RIESCO 7444,"PRESIDENTE RIESCO 7444 CON OCARROL, SANTIAGO, REGION METROPOLITANA, CHILE",LAS CONDES,-33.3960122,-70.557328,ALMAHUE INMOBILIARIA,DEPARTAMENTO,42461,140.5,27,0,2022-12-16,por definir
370,371,EDIFICIO ALTO AMUNATEGUI,"ROSAS 1339, SANTIAGO, REGION METROPOLITANA, CHILE",SANTIAGO,-33.4355956,-70.6563853,EUROINMOBILARIA S.A.,DEPARTAMENTO,42614,49.0,287,0,2022-12-16,por definir
371,372,EDIFICIO PIACENZA,"PIACENZA 1137, SANTIAGO, REGION METROPOLITANA, CHILE",LAS CONDES,-33.4189912,-70.5592737,INMOBILIARIA PIACENZA LTDACONSTRUCTORA M3,DEPARTAMENTO,42156,110.0,32,0,2022-12-16,por definir
372,373,EDIFICIO TRIPLE CORONA,"HIPODROMO CHILE 1702, SANTIAGO, REGION METROPOLITANA, CHILE",INDEPENDENCIA,-33.4071655,-70.6642933,MONTALVA QUINDOS,DEPARTAMENTO,42156,49.0,189,0,2022-12-16,por definir
373,374,EDIFICIO PLAZA MEDINACELLI 1160,"MEDINACELLI 1160, SANTIAGO, REGION METROPOLITANA, CHILE",LAS CONDES,-33.4187977,-70.5663268,PROCASA RICARDO VIAL,DEPARTAMENTO,42156,104.5,39,0,2022-12-16,por definir
374,375,EDIFICIO ACTIVA SAN CRISTOBAL,"DIAZ RAMOS ENTRE URRUTIA Y SAN CRISTOBAL (S.VTA RECOLETA 877), SANTIAGO, REGION METROPOLITANA, CHILE",RECOLETA,-33.4206702,-70.6427806,GRUPO ACTIVA,DEPARTAMENTO,42248,61.0,205,0,2022-12-16,por definir
375,376,EDIFICIO ATICO COLON,"CRISTOBAL COLON 6498, SANTIAGO, REGION METROPOLITANA, CHILE",LAS CONDES,-33.416788,-70.5614198999999,IMSA - AD PORTAS,DEPARTAMENTO,42430,121.5,40,0,2022-12-16,por definir
376,377,EDIFICIO PLAZA VERDE III,"EL GUANACO NORTE 570, SANTIAGO, REGION METROPOLITANA, CHILE",HUECHURABA,-33.3529672,-70.6733122,INMOBILIARIA ICTINOS,DEPARTAMENTO,42522,73.5,120,0,2022-12-16,por definir
377,378,EDIFICIO MARCEL DUHAUT IV,"MARCEL DUHAUT 2825, SANTIAGO, REGION METROPOLITANA, CHILE",PROVIDENCIA,-33.4293061,-70.5947707,INMOBILIARIA LOS CERROS,DEPARTAMENTO,42309,106.0,46,0,2022-12-16,por definir
378,379,EDIFICIO MANANTIAL DE VITACURA,"EL MANANTIAL 1760, SANTIAGO, REGION METROPOLITANA, CHILE",VITACURA,-33.3791867,-70.5412985,INMOBILIA GESTION Y DESARROLLO,DEPARTAMENTO,42339,105.5,60,0,2022-12-16,por definir
379,380,EDIFICIO CIARA,"TERESA CONCHA WALKER 1150, SANTIAGO, REGION METROPOLITANA, CHILE",VITACURA,-33.3975439,-70.5746474,INMOBILIARIA NUCLEOS,DEPARTAMENTO,42491,121.0,42,0,2022-12-16,por definir
380,381,CONCEPTO OPEN PARK,"JOSE DOMINGO CAÑA 2435, SANTIAGO, REGION METROPOLITANA, CHILE",ÑUÑOA,-33.4574181,-70.6066915999999,IMAGINA INMOBILIARIA,DEPARTAMENTO,42795,66.5,101,0,2022-12-16,por definir
381,382,MONTES DE IZARRA,"AV. DEL CAMBRAL 21300, SANTIAGO, REGION METROPOLITANA, CHILE",PUDAHUEL,-33.5215631,-70.7771723,BROTEC - ICAFAL,CASA,42461,108.5,95,0,2022-12-16,por definir
382,383,CONDOMINIO PARQUE LAS CATALPAS,"CAPELLAN FLORENCIO INFANTE 2755, SANTIAGO, REGION METROPOLITANA, CHILE",MAIPU,-33.54342,-70.78475,LOS SILOS INMOBILIARIA,CASA,42064,90.0,98,0,2022-12-16,por definir
383,384,EDIFICIOS PARQUE GAUSS,"SAN NICOLAS 1320, SANTIAGO, REGION METROPOLITANA, CHILE",SAN MIGUEL,-33.4981151,-70.658717,SIENA INMOBILIARIA S.A.,DEPARTAMENTO,42552,68.0,127,0,2022-12-16,por definir
384,385,CONCEPTO ORIENTE PLUS,"JAIME GUZMAN ERRARAZURIZ 3305, SANTIAGO, REGION METROPOLITANA, CHILE",ÑUÑOA,-33.4470291,-70.594397,IMAGINA INMOBILIARIA,DEPARTAMENTO,44166,77.0,136,1,2022-12-16,por definir
385,386,EDIFICIO ILUSION,"SAN ISIDRO 92, SANTIAGO, REGION METROPOLITANA, CHILE",SANTIAGO,-33.4445144,-70.6440915,PAZ INMOBILIARIA,DEPARTAMENTO,42522,39.0,399,0,2022-12-16,por definir
386,387,SANTA BARBARA,"PADRE HURTADO 16912, SANTIAGO, REGION METROPOLITANA, CHILE",SAN BERNARDO,-33.6158663,-70.6822648999999,CONSTRUCTORA POCURO,CASA,42064,79.0,217,1,2022-12-16,por definir
387,388,CONCEPTO ORIGINS,"SUCRE 2428, SANTIAGO, REGION METROPOLITANA, CHILE",ÑUÑOA,-33.4485617,-70.6063662,IMAGINA INMOBILIARIA,DEPARTAMENTO,43709,76.5,90,0,2022-12-16,por definir
388,389,EDIFICIO ECO FUTURO,"RADAL 066, SANTIAGO, REGION METROPOLITANA, CHILE",ESTACION CENTRAL,-33.4556222,-70.7013338,INMOBILIARIA FUNDAMENTA,DEPARTAMENTO,42948,41.0,340,0,2022-12-16,por definir
389,390,EDIFICIO MIRADOR CENTRAL,"SAN DIEGO 1350, SANTIAGO, REGION METROPOLITANA, CHILE",SANTIAGO,-33.4631644,-70.6487809,CONSTRUCTORA LEIVA Y LEDEA,DEPARTAMENTO,42430,39.5,984,0,2022-12-16,por definir
390,391,EDIFICIO NUEVO PORVENIR,"VICUÑA MACKENNA 1013, SANTIAGO, REGION METROPOLITANA, CHILE",SANTIAGO,-33.4547719,-70.6303516999999,EUROINMOBILARIA S.A.,DEPARTAMENTO,42614,42.0,210,0,2022-12-16,por definir
391,392,ECO SOLAR II,"SANTA ELENA 870, SANTIAGO, REGION METROPOLITANA, CHILE",SANTIAGO,-33.4528471,-70.6320078999999,INMOBILIARIA FUNDAMENTA,DEPARTAMENTO,43040,40.5,236,0,2022-12-16,por definir
392,393,LOMAS LA CRUZ -EDIFICIO CANTO DEL AGUA,"LOMAS LA CRUZ 200, SANTIAGO, REGION METROPOLITANA, CHILE",LO BARNECHEA,-33.3511376,-70.5425625,WOOD,DEPARTAMENTO,42522,360.5,24,0,2022-12-16,por definir
393,394,CONCEPTO SELECT,"MANUEL TOCORNAL 357, SANTIAGO, REGION METROPOLITANA, CHILE",SANTIAGO,-33.4478861,-70.6410983999999,IMAGINA INMOBILIARIA,DEPARTAMENTO,42461,53.5,170,0,2022-12-16,por definir
394,395,EDIFICIO CONQUISTA VELASQUEZ,"PADRE ALBERTO HURTADO 150, SANTIAGO, REGION METROPOLITANA, CHILE",ESTACION CENTRAL,-33.4559185,-70.6897245,DEVELOP,DEPARTAMENTO,42522,37.0,632,0,2022-12-16,por definir
395,396,CONCEPTO ROYALE,"LUIS BELTRAN 2209, SANTIAGO, REGION METROPOLITANA, CHILE",ÑUÑOA,-33.4524864,-70.6185538,IMAGINA INMOBILIARIA,DEPARTAMENTO,42979,67.0,221,0,2022-12-16,por definir
396,397,PLAZA COUSIÑO,"DIECIOCHO 620, SANTIAGO, REGION METROPOLITANA, CHILE",SANTIAGO,-33.4538826,-70.6566323999999,INMOBILIARIA HABITE,DEPARTAMENTO,42705,32.5,326,0,2022-12-16,por definir
397,398,CONCEPTO FRESH - EX CONCEPTO PORTUGAL,"PORTUGAL 800-900, SANTIAGO, REGION METROPOLITANA, CHILE",SANTIAGO,-33.4488897,-70.6692655,IMAGINA INMOBILIARIA,DEPARTAMENTO,42856,36.0,290,0,2022-12-16,por definir
398,399,LOMA LA CRUZ - EDIFICIO PIEDRA VIVA,"LOMA LA CRUZ NORTE, SANTIAGO, REGION METROPOLITANA, CHILE",LO BARNECHEA,-33.3478945,-70.5435887,WOOD,DEPARTAMENTO,42614,220.0,30,0,2022-12-16,por definir
399,400,CONCEPTO SMART,"GENERAL BUSTAMANTE 730, SANTIAGO, REGION METROPOLITANA, CHILE",ÑUÑOA,-33.4513413,-70.6288826999999,IMAGINA INMOBILIARIA,DEPARTAMENTO,43617,49.5,238,0,2022-12-16,por definir
400,401,EDIFICIO WENTU,"PUNTA DE AGUILA ESQUINA CAMINO LA HUERTA, SANTIAGO, REGION METROPOLITANA, CHILE",LO BARNECHEA,-33.3452128,-70.5554545,PROHABIT,DEPARTAMENTO,42339,181.0,20,0,2022-12-16,por definir
401,402,MIGUEL ARTECHE,"EL MANZANO ENTRE PRIMERA Y SEGUNDA TRANSVERSAL, SANTIAGO, REGION METROPOLITANA, CHILE",PADRE HURTADO,-33.5008515,-70.7451936,CONAVICOOP,CASA,42430,50.0,120,0,2022-12-16,por definir
402,403,EDIFICIO HACIENDA CAPITAL II,"HIPODROMO CHILE 1608, SANTIAGO, REGION METROPOLITANA, CHILE",INDEPENDENCIA,-33.4070964,-70.6625122,EUROINMOBILARIA S.A.,DEPARTAMENTO,42614,43.0,204,0,2022-12-16,por definir
403,404,CONJUNTO RESIDENCIAL DOÑA JAVIERA,"INDEPENDENCIA 420, SANTIAGO, REGION METROPOLITANA, CHILE",PUENTE ALTO,-33.4263871,-70.654575,CONSTRUCTORA BIO BIO,CASA,42064,73.0,60,0,2022-12-16,por definir
404,405,VISTA LAGUNA,"CAMINO A LA LAGUNA, SANTIAGO, REGION METROPOLITANA, CHILE",LO BARNECHEA,-33.5659206,-70.7823986,SITU,CASA,42156,211.5,17,0,2022-12-16,por definir
405,406,NOGALES DEL GOLF - DEPARTAMENTOS,"BERNARDO LARRAIN COTAPOS 12663, SANTIAGO, REGION METROPOLITANA, CHILE",LO BARNECHEA,-33.3416335,-70.5186681,MPC,DEPARTAMENTO,43070,323.0,24,0,2022-12-16,por definir
406,407,NOGALES DEL GOLF - CASAS,"BERNARDO LARRAIN COTAPOS 12663, SANTIAGO, REGION METROPOLITANA, CHILE",LO BARNECHEA,-33.3416335,-70.5186681,MPC,CASA,42614,291.5,44,0,2022-12-16,por definir
407,408,CONDOMINIO LAS PALMAS III,"MACUL 6305, SANTIAGO, REGION METROPOLITANA, CHILE",MACUL,-33.5078708,-70.5913789,SIENA - SOCOVESA,DEPARTAMENTO,42705,48.5,322,0,2022-12-16,por definir
408,409,CONDOMINIO CASAS BLANCAS LIENTUR,"LIENTUR 7279, SANTIAGO, REGION METROPOLITANA, CHILE",LA FLORIDA,-33.5193529,-70.5617137999999,INMOBILIARIA ATIEL,CASA,42064,115.0,9,0,2022-12-16,por definir
409,410,CONDOMINIO CAMINO DEL SOL 3695,"CAMINO DEL SOL 4450, SANTIAGO, REGION METROPOLITANA, CHILE",LO BARNECHEA,-33.3405023,-70.496163,CONSTRUCTORA BYC E HIJOS,CASA,42064,252.0,5,0,2022-12-16,por definir
410,411,CONDOMINIO BERNSTEIN,"JULIA BERNSTEIN 1001, SANTIAGO, REGION METROPOLITANA, CHILE",LA REINA,-33.4455154,-70.5227051,PROHABIT,CASA,42248,139.0,18,0,2022-12-16,por definir
411,412,LAS CASAS DE PADRE HURTADO PONIENTE,"SAN FRANCISCO DE BORJA S/N, SANTIAGO, REGION METROPOLITANA, CHILE",PADRE HURTADO,-33.4590707,-70.6807996,RIOS LARRAIN LTDA PROPIEDADES,CASA,42064,74.5,264,0,2022-12-16,por definir
412,413,CONCEPTO SMART MACUL,"MACUL 3474, SANTIAGO, REGION METROPOLITANA, CHILE",MACUL,-33.486057,-70.5992177,IMAGINA INMOBILIARIA,DEPARTAMENTO,44348,55.0,186,0,2022-12-16,por definir
413,414,CONDOMINIO TERRANOVA LOS LEONES,"LOS LEONES 2142, SANTIAGO, REGION METROPOLITANA, CHILE",PROVIDENCIA,-33.4385925,-70.6001737,INMOBILIARIA CERRO BAYO,DEPARTAMENTO,42339,100.0,46,0,2022-12-16,por definir
414,415,EDIFICIO HOLANDA 1500,"HOLANDA 1500, SANTIAGO, REGION METROPOLITANA, CHILE",PROVIDENCIA,-33.4322947,-70.5996971,SIMONETTI INMOBILIARIA,DEPARTAMENTO,42522,111.5,47,0,2022-12-16,por definir
415,416,CASAS BARRIO ALTO - LAS BANDURRIAS,"RUTA 68 KM 14,5, SANTIAGO, REGION METROPOLITANA, CHILE",PUDAHUEL,-33.5100514,-70.8034584,INMOBILIARIA IMSA ADPORTAS,CASA,42430,105.5,128,0,2022-12-16,por definir
416,417,CONDOMINIO PARQUE VIVACETA III,"NUEVA ANDRES BELLO 1860, SANTIAGO, REGION METROPOLITANA, CHILE",INDEPENDENCIA,-33.4174073,-70.6655945,EUROINMOBILIARIA,DEPARTAMENTO,42614,39.0,380,0,2022-12-16,por definir
417,418,CONDOMINIO MONTE VERDE,"CHAMISERO 13316, SANTIAGO, REGION METROPOLITANA, CHILE",COLINA,-33.3114168,-70.6580432,INMOBILIA GESTION Y DESARROLLO,CASA,42705,169.5,50,0,2022-12-16,por definir
418,419,CONDOMINIO ALVARO CASANOVA 1021,"ALVARO CASANOVA 1021, SANTIAGO, REGION METROPOLITANA, CHILE",LA REINA,-33.4461436,-70.5188005,CAVALIERI PROPIEDADES,CASA,42248,140.0,12,0,2022-12-16,por definir
419,420,EDIFICIO GRAN ROBLE,"ROBLES 12977, SANTIAGO, REGION METROPOLITANA, CHILE",LO BARNECHEA,-33.3617516,-70.513324,PENTA LAS AMERICAS,DEPARTAMENTO,42795,170.0,45,0,2022-12-16,por definir
420,421,CONDOMINIO QUILLAYES DE LA DEHESA,"EN LA DEHESA, FRENTE A LA CALLE RINCON, SANTIAGO, REGION METROPOLITANA, CHILE",LO BARNECHEA,-33.3422415,-70.5214052,ENACO S.A.,CASA,42430,227.0,83,1,2022-12-16,por definir
421,422,EDIFICIO GENERAL PRIETO 1305,"GENERAL PRIETO 1305, SANTIAGO, REGION METROPOLITANA, CHILE",INDEPENDENCIA,-33.4299192,-70.6562491999999,PILARES,DEPARTAMENTO,42339,49.0,199,0,2022-12-16,por definir
422,423,CONDOMINIO LOS CEDROS III,"HELSBY 9501, SANTIAGO, REGION METROPOLITANA, CHILE",LA REINA,-33.4356592,-70.5304676,INMOBILIARIA MERU,CASA,42339,140.0,5,0,2022-12-16,por definir
423,424,EDIFICIO NUEVO CENTRO,"FRANCISCO ZELADA 058, SANTIAGO, REGION METROPOLITANA, CHILE",ESTACION CENTRAL,-33.4527949,-70.7030542999999,RVC INGENIERIA Y CONSTRUCCION,DEPARTAMENTO,42614,44.0,245,0,2022-12-16,por definir
424,425,CONDOMINIO SAN PEDRO,"LUIS MATTE LARRAIN 245, SANTIAGO, REGION METROPOLITANA, CHILE",PUENTE ALTO,-33.5861283,-70.5834886,INMOBILIARIA TODOS LOS SANTOS,DEPARTAMENTO,42064,51.5,140,0,2022-12-16,por definir
425,426,EDIFICIO PARQUE QUINTA,"SAN PABLO 3969, SANTIAGO, REGION METROPOLITANA, CHILE",QUINTA NORMAL,-33.4375009,-70.6893669999999,RVC INGENIERIA Y CONSTRUCCION,DEPARTAMENTO,42522,47.0,215,0,2022-12-16,por definir
426,427,CONCEPTO DESIGN SAN DAMIAN,"LAS CONDES 11510, SANTIAGO, REGION METROPOLITANA, CHILE",VITACURA,-33.4606584,-70.7324817,IMAGINA INMOBILIARIA,DEPARTAMENTO,43040,105.5,98,0,2022-12-16,por definir
427,428,VISTA LOS BOSQUES,"CHAMISERO 12500, SANTIAGO, REGION METROPOLITANA, CHILE",COLINA,-33.306846,-70.6631101,INMOBILIARIA MANQUEHUE LTDA.,CASA,42248,278.0,29,0,2022-12-16,por definir
428,429,EDIFICIO COLOUR,"CAROL URZUA ESQ. LAS CONDES, SANTIAGO, REGION METROPOLITANA, CHILE",LAS CONDES,-33.4059596,-70.5576227,FUENZALIDA DESARROLLOS INMOBILIARIOS,DEPARTAMENTO,42705,51.5,278,0,2022-12-16,por definir
429,430,EDIFICIO CASA ALONSO PINZON,"MARTIN ALONZO PINZON 6914, SANTIAGO, REGION METROPOLITANA, CHILE",LAS CONDES,-33.4193342,-70.5580769,INMOBILIARIA CERRO CALAN S.A.,DEPARTAMENTO,42156,103.0,16,0,2022-12-16,por definir
430,431,TOWNHOUSE CHICUREO,"AV. DEL VALLE S/N, SANTIAGO, REGION METROPOLITANA, CHILE",COLINA,-33.3920816,-70.6139342,STITCHKIN GESTION INMOBILIARIA,DEPARTAMENTO,42370,101.5,24,0,2022-12-16,por definir
431,432,CONDELL 54,"CONDELL 1575, SANTIAGO, REGION METROPOLITANA, CHILE",ÑUÑOA,-33.4491993,-70.6255366,SURMONTE,DEPARTAMENTO,43160,87.0,54,0,2022-12-16,por definir
432,433,CONDOMINIO PARQUE MACUL,"CAMILO ORTUZAR 4030, SANTIAGO, REGION METROPOLITANA, CHILE",MACUL,-33.5054691,-70.5910713,INMOBILIARIA DGV,DEPARTAMENTO,42430,55.0,158,0,2022-12-16,por definir
433,434,CONDOMINIO TERRAZAS DE MACUL,"MACUL 3700, SANTIAGO, REGION METROPOLITANA, CHILE",MACUL,-33.4879354,-70.5991859,INMOBILIARIA NUEVA MACUL LTDA,DEPARTAMENTO,42339,60.5,238,0,2022-12-16,por definir
434,435,EDIFICIO DECIMA AVENIDA 1180,"DECIMA AVENIDA 1180, SANTIAGO, REGION METROPOLITANA, CHILE",SAN MIGUEL,-33.5133797,-70.6593676,ACCION INMOBILIARIA,DEPARTAMENTO,42217,45.0,289,0,2022-12-16,por definir
435,436,CONDOMINIO ALTO VESPUCIO,"AMERICO VESPUCIO 4601, SANTIAGO, REGION METROPOLITANA, CHILE",MACUL,-33.4975974,-70.5861958999999,STITCHKIN GESTION INMOBILIARIA,DEPARTAMENTO,42705,53.5,193,0,2022-12-16,por definir
436,437,CONDOMINIO SOL DE HUECHURABA,"PEDRO FONTOVA 7996, SANTIAGO, REGION METROPOLITANA, CHILE",HUECHURABA,-33.3428586,-70.6693817,INMOBILIARIA ELQUI,CASA,42064,124.0,12,0,2022-12-16,por definir
437,438,PARQUE EL SOL II,"CALLE EL MANZANO 897, SANTIAGO, REGION METROPOLITANA, CHILE",PADRE HURTADO,-33.5720049,-70.8044115,INMOBILIARIA LOS SILOS,CASA,42248,54.0,110,0,2022-12-16,por definir
438,439,PORTAL LA VIÑA 2.0,"VICUÑA MACKENNA 2289, SANTIAGO, REGION METROPOLITANA, CHILE",SAN JOAQUIN,-33.471076,-70.6245663999999,PROCASA RICARDO VIAL,DEPARTAMENTO,42522,51.5,250,0,2022-12-16,por definir
439,440,EDIFICIO BERLIN,"BERLIN 1000, SANTIAGO, REGION METROPOLITANA, CHILE",SAN MIGUEL,-33.4933698,-70.6504106,TOLTEN GESTION INMOBILIARIA,DEPARTAMENTO,42522,54.0,177,0,2022-12-16,por definir
440,441,JARDINES DE VICUÑA MACKENNA II,"DIAGONAL VICUÑA MACKENNA 2004, SANTIAGO, REGION METROPOLITANA, CHILE",SANTIAGO,-33.4698855,-70.6259677,SINERGIA,DEPARTAMENTO,42705,45.5,256,0,2022-12-16,por definir
441,442,EDIFICIO MORANDE 707,"MORANDE 707, SANTIAGO, REGION METROPOLITANA, CHILE",SANTIAGO,-33.4352592,-70.65428,INMOBILIARIA SIP,DEPARTAMENTO,42614,42.5,197,0,2022-12-16,por definir
442,443,EDIFICIO MACKENNA,"AMUNATEGUI 870, ESQUINA GENERAL MACKENNA, SANTIAGO, REGION METROPOLITANA, CHILE",SANTIAGO,-33.4336357,-70.6575857,INMOBILIARIA DMB,DEPARTAMENTO,42614,53.5,309,0,2022-12-16,por definir
443,444,EDIFICIO CAUPOLICAN 1061,"CAUPOLICAN 1061, SANTIAGO, REGION METROPOLITANA, CHILE",PROVIDENCIA,-33.44691,-70.6171899,INMOBILIARIA CYGNUS IV,DEPARTAMENTO,42064,87.0,30,0,2022-12-16,por definir
444,445,EDIFICIO LYON 2121,"RICARDO LYON 2121, SANTIAGO, REGION METROPOLITANA, CHILE",PROVIDENCIA,-33.44048,-70.6034150999999,INMOBILIARIA ALMAHUE,DEPARTAMENTO,42552,77.0,72,0,2022-12-16,por definir
445,446,EDIFICIO POCURO,"JOSE MANUEL COUSIÑO 1835, SANTIAGO, REGION METROPOLITANA, CHILE",PROVIDENCIA,-33.4327024,-70.5917265,INMOBILIARIA BROTEC,DEPARTAMENTO,42430,100.5,72,0,2022-12-16,por definir
446,447,EDIFICIO HOLANDA,"HOLANDA 1860, SANTIAGO, REGION METROPOLITANA, CHILE",PROVIDENCIA,-33.4354153,-70.5986746,INMOBILIARIA BROTEC,DEPARTAMENTO,42522,85.0,78,0,2022-12-16,por definir
447,448,EDIFICIO VIVE CARMEN,"SANTA ISABEL 455, SANTIAGO, REGION METROPOLITANA, CHILE",SANTIAGO,-33.4494054,-70.6405283,BROTEC-ICAFAL,DEPARTAMENTO,42522,45.5,180,0,2022-12-16,por definir
448,449,EDIFICIO CARMEN MATTA II,"MATTA 512, SANTIAGO, REGION METROPOLITANA, CHILE",SANTIAGO,-33.4544014,-70.6251125,EUROINMOBILIARIA,DEPARTAMENTO,42614,39.0,300,0,2022-12-16,por definir
449,450,EDIFICIO PLAZA EL LLANO II,"SAN IGNACIO 3452, SANTIAGO, REGION METROPOLITANA, CHILE",SAN MIGUEL,-33.4856508,-70.6552086,URMENETA GESTION INMOBILIARIA,DEPARTAMENTO,42522,65.0,119,0,2022-12-16,por definir
450,451,EDIFICIO LAZO,"LAZO 1481, SANTIAGO, REGION METROPOLITANA, CHILE",SAN MIGUEL,-33.4976644,-70.6619233999999,PILARES,DEPARTAMENTO,42309,49.0,153,0,2022-12-16,por definir
451,452,CONDOMINIO ALTO VESPUCIO II,"AMERICO VESPUCIO 4601, SANTIAGO, REGION METROPOLITANA, CHILE",MACUL,-33.4975974,-70.5861958999999,STITCHKIN GESTION INMOBILIARIA,DEPARTAMENTO,42736,39.0,203,0,2022-12-16,por definir
452,453,EDIFICIO LOS AVELLANOS,"LOS AVELLANOS 2771, SANTIAGO, REGION METROPOLITANA, CHILE",ÑUÑOA,-33.4733044,-70.6032292,ECO INVERSIONES - VIVE TU BARRIO,DEPARTAMENTO,43070,84.5,20,0,2022-12-16,por definir
453,454,MIRADOR DE QUILIN,"QUILIN 3375, SANTIAGO, REGION METROPOLITANA, CHILE",MACUL,-33.4855837,-70.5975359999999,PAZ INMOBILIARIA,DEPARTAMENTO,43556,58.5,200,0,2022-12-16,por definir
454,455,EDIFICIO SAN NICOLAS 1346,"SAN NICOLAS 1346, SANTIAGO, REGION METROPOLITANA, CHILE",SAN MIGUEL,-33.4981758,-70.6594838,GRAN MUNDO,DEPARTAMENTO,42125,49.0,180,0,2022-12-16,por definir
455,456,EDIFICIO MIRASOL,"SEGUNDA AVENIDA 1146, SANTIAGO, REGION METROPOLITANA, CHILE",SAN MIGUEL,-33.5054062,-70.6562774,INMOBILIARIA PANGEA,DEPARTAMENTO,42064,32.0,72,0,2022-12-16,por definir
456,457,ALTOS DEL LLANO II,"LLANO SUBERCASEAUX ESQUINA FERNANDO LAZCANO, SANTIAGO, REGION METROPOLITANA, CHILE",SAN MIGUEL,-33.4842583,-70.6502039,ICAFAL,DEPARTAMENTO,42614,59.5,152,0,2022-12-16,por definir
457,458,PARQUE TOBALABA II,"TOBALABA 7370, SANTIAGO, REGION METROPOLITANA, CHILE",LA FLORIDA,-33.449867,-70.5610224999999,INMOBILIARIA RAUL DEL RIO,DEPARTAMENTO,42339,45.5,120,0,2022-12-16,por definir
458,459,CONDOMINIO LOS ANDES - EDIFICIO F,"CAMINO AGRICOLA 1710, SANTIAGO, REGION METROPOLITANA, CHILE",MACUL,-33.4917505,-70.6175308999999,GRUPO HOGARES,DEPARTAMENTO,42767,40.0,144,0,2022-12-16,por definir
459,460,CONDOMINIO LOS ANDES - EDIFICIO G,"CAMINO AGRICOLA 1710, SANTIAGO, REGION METROPOLITANA, CHILE",MACUL,-33.4917505,-70.6175308999999,GRUPO HOGARES,DEPARTAMENTO,00-01-1900,53.5,171,0,2022-12-16,por definir
460,461,EDIFICIO PLAZA NATANIEL,"NATANIEL COX 1313, SANTIAGO, REGION METROPOLITANA, CHILE",SANTIAGO,-33.4628717,-70.6513399,VIARSA,DEPARTAMENTO,42614,45.5,400,0,2022-12-16,por definir
461,462,EDIFICIO AMALIA ERRAZURIZ,"AMALIA ERRAZURIZ 956, SANTIAGO, REGION METROPOLITANA, CHILE",INDEPENDENCIA,-33.4199894,-70.6572396,PAZ INMOBILIARIA,DEPARTAMENTO,42795,40.0,228,0,2022-12-16,por definir
462,463,EDIFICIO LOS PARQUES IV,"ROBERTO ESPINOZA 1029, SANTIAGO, REGION METROPOLITANA, CHILE",SANTIAGO,-33.4592706,-70.6527428,HOBBINS PROPIEDADES,DEPARTAMENTO,00-01-1900,66.0,123,0,2022-12-16,por definir
463,464,EDIFICIO PARQUE ESMERALDA,"ESMERALDA 6876, SANTIAGO, REGION METROPOLITANA, CHILE",LA CISTERNA,-33.5197132,-70.6567421,MEGAPRO,DEPARTAMENTO,42339,54.0,113,0,2022-12-16,por definir
464,465,EDIFICIO PLAZA CORDOVA,"ALONSO DE CORDOVA 5752, SANTIAGO, REGION METROPOLITANA, CHILE",LAS CONDES,-33.4071338,-70.5707887,INVERKO,DEPARTAMENTO,42339,92.5,60,0,2022-12-16,por definir
465,466,EDIFICIO JARDINES DE LAS CONDES II,"LAS CONDES 9660, SANTIAGO, REGION METROPOLITANA, CHILE",LAS CONDES,-33.4130496,-70.5145939,BERSA GESTION INMOBILIARIA,DEPARTAMENTO,42339,67.0,179,0,2022-12-16,por definir
466,467,EDIFICIO BELISARIO II,"BELISARIO PRAT 1840, SANTIAGO, REGION METROPOLITANA, CHILE",INDEPENDENCIA,-33.4101404,-70.6546623999999,STITCHKIN GESTION INMOBILIARIA,DEPARTAMENTO,42614,38.5,220,0,2022-12-16,por definir
467,468,CONDOMINIO LAS PALMAS DE LA FLORIDA,"MARIA ELENA 370, SANTIAGO, REGION METROPOLITANA, CHILE",LA FLORIDA,-33.5617199,-70.5898443,VIVIENDAS 2000,DEPARTAMENTO,42186,59.5,164,0,2022-12-16,por definir
468,469,NOW SANTA MARIA,"EL CERRO 1731, SANTIAGO, REGION METROPOLITANA, CHILE",PROVIDENCIA,-33.3957819,-70.7214881,FUENZALIDA DESARROLLOS INMOBILIARIOS,DEPARTAMENTO,42583,55.0,208,0,2022-12-16,por definir
469,470,EDIFICIO JARDIN DEL TAMARUGO,"TAMARUGO 1189, SANTIAGO, REGION METROPOLITANA, CHILE",VITACURA,-33.4019261,-70.5851568,PENTA LAS AMERICAS,DEPARTAMENTO,42705,116.5,80,0,2022-12-16,por definir
470,471,EDIFICIO JUAN DE PINEDA 7699,"JUAN DE PINEDA 7699, SANTIAGO, REGION METROPOLITANA, CHILE",LA FLORIDA,-33.5244643,-70.5874274999999,RACO INMOBILIARIA,DEPARTAMENTO,42186,61.5,42,0,2022-12-16,por definir
471,472,MIRADOR PARQUE LOS REYES - EDIFICIO BALMACEDA,"BALMACEDA 2170, SANTIAGO, REGION METROPOLITANA, CHILE",SANTIAGO,-33.4298969,-70.6676447999999,INMOBILIARIA NOBLEZA,DEPARTAMENTO,42705,45.5,216,0,2022-12-16,por definir
472,473,CONDOMINIO LOS ANDES - TORRE E,"ESCUELA AGRICOLA 1710, SANTIAGO, REGION METROPOLITANA, CHILE",MACUL,-33.4911381,-70.6155787,GRUPO HOGARES,DEPARTAMENTO,42309,33.5,161,0,2022-12-16,por definir
473,474,CONDOMINIO PORTICO LIENTUR,"LIENTUR 7234, SANTIAGO, REGION METROPOLITANA, CHILE",LA FLORIDA,-33.5190294,-70.5611442,INMOBILIARIA CONOMA,CASA,42064,77.0,16,0,2022-12-16,por definir
474,475,EDIFICIO ECO VISION,"CARLOS LIRA 1116, SANTIAGO, REGION METROPOLITANA, CHILE",LAS CONDES,-33.4178726,-70.5632929,INMOBILIARIA FUNDAMENTA,DEPARTAMENTO,42705,111.0,128,0,2022-12-16,por definir
475,476,EDIFICIO CARLOS ALVARADO,"CARLOS ALVARADO 5373, SANTIAGO, REGION METROPOLITANA, CHILE",LAS CONDES,-33.4294725,-70.5687155999999,ALMAGRO S.A.,DEPARTAMENTO,42522,131.0,38,0,2022-12-16,por definir
476,477,CONDOMINIO NOVA,"SALVADOR 1794, SANTIAGO, REGION METROPOLITANA, CHILE",ÑUÑOA,-33.4494332,-70.6216551,BESALCO INMOBILIARIA S.A.,DEPARTAMENTO,42461,50.0,135,0,2022-12-16,por definir
477,478,LAS TORCAZAS,"LAS TORCAZAS 237, SANTIAGO, REGION METROPOLITANA, CHILE",LAS CONDES,-33.4121004,-70.5891159,NAHMIAS HNOS,DEPARTAMENTO,42461,198.0,26,0,2022-12-16,por definir
478,479,EDIFICIO STEP,"SAN MARTIN 841, SANTIAGO, REGION METROPOLITANA, CHILE",SANTIAGO,-33.4339065,-70.6586891,PAZ INMOBILIARIA,DEPARTAMENTO,42887,43.5,226,0,2022-12-16,por definir
479,480,CASAS DE LA REINA II,"SIMON BOLIVAR 8501, SANTIAGO, REGION METROPOLITANA, CHILE",LA REINA,-33.4446502,-70.5429012,INMOBILIARIA CASA URBANA,CASA,42491,140.0,5,0,2022-12-16,por definir
480,481,PARQUE COUSIÑO MACUL-VISTA CORDILLERA X,"SANCHEZ FONTECILLA 13000, SANTIAGO, REGION METROPOLITANA, CHILE",PEÑALOLEN,-33.4986254,-70.5594813,CRILLON DESARROLLO INMOBILIARIO S.A.,CASA,42522,128.0,70,0,2022-12-16,por definir
481,482,EDIFICIO PADEREWSKI,"PADEREWSKI 1544, SANTIAGO, REGION METROPOLITANA, CHILE",VITACURA,-33.3995932,-70.585025,ALMAGRO S.A.,DEPARTAMENTO,42705,110.5,38,0,2022-12-16,por definir
482,483,EDIFICIO SANTO DOMINGO 1470,"SANTO DOMINGO 1470, SANTIAGO, REGION METROPOLITANA, CHILE",SANTIAGO,-33.437015,-70.657991,STITCHKIN GESTION INMOBILIARIA,DEPARTAMENTO,42522,75.5,254,0,2022-12-16,por definir
483,484,EDIFICIO POCURO MATTE,"JORGE MATTE 1677, SANTIAGO, REGION METROPOLITANA, CHILE",PROVIDENCIA,-33.4316425,-70.5929704,INMOBILIARIA INSPIRA,DEPARTAMENTO,42461,106.5,24,0,2022-12-16,por definir
484,485,EDIFICIO ESCANDINAVIA 432,"ESCANDINAVIA 432, SANTIAGO, REGION METROPOLITANA, CHILE",LAS CONDES,-33.4046194,-70.5662469999999,MPC,DEPARTAMENTO,42430,131.0,44,0,2022-12-16,por definir
485,486,EDIFICIO LOS CASTAÑOS,"NILO AZUL 1820, SANTIAGO, REGION METROPOLITANA, CHILE",VITACURA,-33.384714,-70.5590388,MPC,DEPARTAMENTO,42705,123.5,76,0,2022-12-16,por definir
486,487,CONDOMINIO NOVA II,"SALVADOR 1794, SANTIAGO, REGION METROPOLITANA, CHILE",ÑUÑOA,-33.4494332,-70.6216551,BESALCO INMOBILIARIA S.A.,DEPARTAMENTO,42705,49.5,135,0,2022-12-16,por definir
487,488,LOS MILITARES 6631,"LOS MILITARES 6631, SANTIAGO, REGION METROPOLITANA, CHILE",LAS CONDES,-33.4035807,-70.5644677,INMOBILIARIA PCS,DEPARTAMENTO,42186,94.5,33,0,2022-12-16,por definir
488,489,PORTAL LOS MAITENES,"SANTA MARIA 14700, SANTIAGO, REGION METROPOLITANA, CHILE",COLINA,-33.374616,-70.5444433999999,IDEA GRUPO INMOBILIARIO,CASA,42522,146.0,70,0,2022-12-16,por definir
489,490,ALTOS DE QUILICURA - BARRIO ALTO MARCOLETA,"LO ZAÑARTU 133, SANTIAGO, REGION METROPOLITANA, CHILE",QUILICURA,-33.3642405,-70.7088086,ESEPE INMOBILIARIA,CASA,42156,103.0,98,0,2022-12-16,por definir
490,491,CONDOMINIO NOVUS,"AMERICO VESPUCIO 4455, SANTIAGO, REGION METROPOLITANA, CHILE",MACUL,-33.4976688,-70.5861742,STITCHKIN GESTION INMOBILIARIA,DEPARTAMENTO,44197,51.0,244,1,2022-12-16,por definir
491,492,PULSO URBANO,"BALTAZAR 7487, SANTIAGO, REGION METROPOLITANA, CHILE",LA FLORIDA,-33.5222755,-70.5963441,PAZ INMOBILIARIA,DEPARTAMENTO,42767,41.5,204,0,2022-12-16,por definir
492,493,ALTO VICUÑA LA FLORIDA,"VICUÑA MACKENNA PONIENTE 6491, SANTIAGO, REGION METROPOLITANA, CHILE",LA FLORIDA,-33.5153565,-70.6073327,INMOBILIARIA NOLLAGAM,DEPARTAMENTO,42644,49.0,222,0,2022-12-16,por definir
493,494,CONDOMINIO PARQUE MACKENNA,"VICUÑA MACKENNA 4192, SANTIAGO, REGION METROPOLITANA, CHILE",MACUL,-33.4930072,-70.6167416999999,AMBIENTA INMOBILIARIA,DEPARTAMENTO,43770,37.5,350,0,2022-12-16,por definir
494,495,EDIFICIO MAR JONICO,"MAR JONICO 7995, SANTIAGO, REGION METROPOLITANA, CHILE",VITACURA,-33.3844651,-70.5580706,FORTALEZA,DEPARTAMENTO,42614,114.5,48,0,2022-12-16,por definir
495,496,EDIFICIO BLANCO ENCALADA 2501,"BLANCO ENCALADA 2501, SANTIAGO, REGION METROPOLITANA, CHILE",SANTIAGO,-33.4577089,-70.6698696,GRUPO MAGAL,DEPARTAMENTO,42339,76.0,194,0,2022-12-16,por definir
496,497,CONDOMINIO PATIOS DE LA VERBENA,"LA VERBENA 4770, SANTIAGO, REGION METROPOLITANA, CHILE",ÑUÑOA,-33.4382227,-70.5813434,VUELVE GRUPO INMOBILIARIO,DEPARTAMENTO,00-01-1900,70.0,96,0,2022-12-16,por definir
497,498,EDIFICIO CENTRAL,"VICUÑA MACKENNA ORIENTE 6405, SANTIAGO, REGION METROPOLITANA, CHILE",LA FLORIDA,-33.5143466,-70.6052326,INMOBILIARIA LOS SILOS,DEPARTAMENTO,42644,49.0,268,0,2022-12-16,por definir
498,499,CONDOMINIO SAN LUIS II,"LA FLORIDA 10269, SANTIAGO, REGION METROPOLITANA, CHILE",LA FLORIDA,-33.5512177,-70.5668609,INMOBILIARIA TODOS LOS SANTOS,DEPARTAMENTO,42186,61.0,176,0,2022-12-16,por definir
